{
	"_id" : ObjectId("583450639e962f47deaa66a7"),
	"altitude" : 30,
	"city" : "Parbatipur",
	"country" : "Bangladesh",
	"id" : NumberInt("970"),
	"latitude" : 25.65,
	"longitude" : 88.9166641
},
{
	"_id" : ObjectId("583450639e962f47deaa66a8"),
	"altitude" : 2,
	"city" : "Barahanuddin",
	"country" : "Bangladesh",
	"id" : NumberInt("971"),
	"latitude" : 22.5,
	"longitude" : 90.7166672
},
{
	"_id" : ObjectId("583450639e962f47deaa66a9"),
	"altitude" : 24,
	"city" : "Kaliganj",
	"country" : "Bangladesh",
	"id" : NumberInt("972"),
	"latitude" : 23.4166667,
	"longitude" : 89.1333313
},
{
	"_id" : ObjectId("583450639e962f47deaa66aa"),
	"altitude" : 4,
	"city" : "Dohar",
	"country" : "Bangladesh",
	"id" : NumberInt("973"),
	"latitude" : 23.5883333,
	"longitude" : 90.1469421
},
{
	"_id" : ObjectId("583450639e962f47deaa66ab"),
	"altitude" : 4,
	"city" : "Hajiganj",
	"country" : "Bangladesh",
	"id" : NumberInt("974"),
	"latitude" : 23.2511111,
	"longitude" : 90.859169
},
{
	"_id" : ObjectId("583450639e962f47deaa66ac"),
	"altitude" : 16,
	"city" : "Abhaynagar",
	"country" : "Bangladesh",
	"id" : NumberInt("975"),
	"latitude" : 23.0166667,
	"longitude" : 89.4666672
},
{
	"_id" : ObjectId("583450639e962f47deaa66ad"),
	"altitude" : 1,
	"city" : "Lalmohan",
	"country" : "Bangladesh",
	"id" : NumberInt("976"),
	"latitude" : 22.3166667,
	"longitude" : 90.7166672
},
{
	"_id" : ObjectId("583450639e962f47deaa66ae"),
	"altitude" : 11,
	"city" : "Jhikergacha",
	"country" : "Bangladesh",
	"id" : NumberInt("977"),
	"latitude" : 23.1166667,
	"longitude" : 89.1166687
},
{
	"_id" : ObjectId("583450639e962f47deaa66af"),
	"altitude" : 16,
	"city" : "Mirzapur",
	"country" : "Bangladesh",
	"id" : NumberInt("978"),
	"latitude" : 24.1,
	"longitude" : 90.0999985
},
{
	"_id" : ObjectId("583450639e962f47deaa66b0"),
	"altitude" : 19,
	"city" : "Sakhipur",
	"country" : "Bangladesh",
	"id" : NumberInt("979"),
	"latitude" : 24.3,
	"longitude" : 90.1833344
},
{
	"_id" : ObjectId("583450639e962f47deaa66b1"),
	"altitude" : -9999,
	"city" : "Teknaf",
	"country" : "Bangladesh",
	"id" : NumberInt("980"),
	"latitude" : 20.8666667,
	"longitude" : 92.3000031
},
{
	"_id" : ObjectId("583450639e962f47deaa66b2"),
	"altitude" : 2,
	"city" : "Gaurnadi",
	"country" : "Bangladesh",
	"id" : NumberInt("981"),
	"latitude" : 22.9666667,
	"longitude" : 90.2333298
},
{
	"_id" : ObjectId("583450639e962f47deaa66b3"),
	"altitude" : 14,
	"city" : "Kalia",
	"country" : "Bangladesh",
	"id" : NumberInt("982"),
	"latitude" : 23.05,
	"longitude" : 89.6333313
},
{
	"_id" : ObjectId("583450639e962f47deaa66b4"),
	"altitude" : 20,
	"city" : "Bera",
	"country" : "Bangladesh",
	"id" : NumberInt("983"),
	"latitude" : 24.0833333,
	"longitude" : 89.6166687
},
{
	"_id" : ObjectId("583450639e962f47deaa66b5"),
	"altitude" : 2,
	"city" : "Mehendiganj",
	"country" : "Bangladesh",
	"id" : NumberInt("984"),
	"latitude" : 22.8166667,
	"longitude" : 90.5333328
},
{
	"_id" : ObjectId("583450639e962f47deaa66b6"),
	"altitude" : 8,
	"city" : "Chhagalnaiya",
	"country" : "Bangladesh",
	"id" : NumberInt("985"),
	"latitude" : 23.03,
	"longitude" : 91.5069427
},
{
	"_id" : ObjectId("583450639e962f47deaa66b7"),
	"altitude" : 6,
	"city" : "Chhatak",
	"country" : "Bangladesh",
	"id" : NumberInt("986"),
	"latitude" : 25.0333333,
	"longitude" : 91.6666641
},
{
	"_id" : ObjectId("583450639e962f47deaa66b8"),
	"altitude" : 2,
	"city" : "Nalchiti",
	"country" : "Bangladesh",
	"id" : NumberInt("987"),
	"latitude" : 22.6333333,
	"longitude" : 90.2833328
},
{
	"_id" : ObjectId("583450639e962f47deaa66b9"),
	"altitude" : 8,
	"city" : "Bheramara",
	"country" : "Bangladesh",
	"id" : NumberInt("988"),
	"latitude" : 24.0333333,
	"longitude" : 88.9666672
},
{
	"_id" : ObjectId("583450639e962f47deaa66ba"),
	"altitude" : 9,
	"city" : "Phultala",
	"country" : "Bangladesh",
	"id" : NumberInt("989"),
	"latitude" : 22.7,
	"longitude" : 89.5166702
},
{
	"_id" : ObjectId("583450639e962f47deaa66bb"),
	"altitude" : 4,
	"city" : "Baniachang",
	"country" : "Bangladesh",
	"id" : NumberInt("990"),
	"latitude" : 24.5166667,
	"longitude" : 91.3666687
},
{
	"_id" : ObjectId("583450639e962f47deaa66bc"),
	"altitude" : 1,
	"city" : "Sarankhola",
	"country" : "Bangladesh",
	"id" : NumberInt("991"),
	"latitude" : 22.3,
	"longitude" : 89.7833328
},
{
	"_id" : ObjectId("583450639e962f47deaa66bd"),
	"altitude" : 17,
	"city" : "Shibganj",
	"country" : "Bangladesh",
	"id" : NumberInt("992"),
	"latitude" : 24.6833333,
	"longitude" : 88.1666641
},
{
	"_id" : ObjectId("583450639e962f47deaa66be"),
	"altitude" : 35,
	"city" : "Pirganj",
	"country" : "Bangladesh",
	"id" : NumberInt("993"),
	"latitude" : 25.8666667,
	"longitude" : 88.3666687
},
{
	"_id" : ObjectId("583450639e962f47deaa66bf"),
	"altitude" : 10,
	"city" : "Bajitpur",
	"country" : "Bangladesh",
	"id" : NumberInt("994"),
	"latitude" : 24.2166667,
	"longitude" : 90.9499969
},
{
	"_id" : ObjectId("583450639e962f47deaa66c0"),
	"altitude" : 4,
	"city" : "Char Bhadrasan",
	"country" : "Bangladesh",
	"id" : NumberInt("995"),
	"latitude" : 23.3166667,
	"longitude" : 90.2166672
},
{
	"_id" : ObjectId("583450639e962f47deaa66c1"),
	"altitude" : 13,
	"city" : "Gafargaon",
	"country" : "Bangladesh",
	"id" : NumberInt("996"),
	"latitude" : 24.4333333,
	"longitude" : 90.5666656
},
{
	"_id" : ObjectId("583450639e962f47deaa66c2"),
	"altitude" : 9,
	"city" : "Fatikchari",
	"country" : "Bangladesh",
	"id" : NumberInt("997"),
	"latitude" : 22.6883333,
	"longitude" : 91.7908325
},
{
	"_id" : ObjectId("583450639e962f47deaa66c3"),
	"altitude" : 32,
	"city" : "Badarganj",
	"country" : "Bangladesh",
	"id" : NumberInt("998"),
	"latitude" : 25.6666667,
	"longitude" : 89.0500031
},
{
	"_id" : ObjectId("583450639e962f47deaa66c4"),
	"altitude" : 10,
	"city" : "Bandarban",
	"country" : "Bangladesh",
	"id" : NumberInt("999"),
	"latitude" : 22.1980556,
	"longitude" : 92.2197189
},
{
	"_id" : ObjectId("583450639e962f47deaa66c5"),
	"altitude" : 3,
	"city" : "Nabinagar",
	"country" : "Bangladesh",
	"id" : NumberInt("1000"),
	"latitude" : 23.8916667,
	"longitude" : 90.9733353
},
{
	"_id" : ObjectId("583450639e962f47deaa6628"),
	"altitude" : 1172,
	"city" : "Susa",
	"country" : "Azerbaijan",
	"id" : NumberInt("843"),
	"latitude" : 39.7563889,
	"longitude" : 46.7511101
},
{
	"_id" : ObjectId("583450639e962f47deaa6629"),
	"altitude" : -7,
	"city" : "Neftcala",
	"country" : "Azerbaijan",
	"id" : NumberInt("844"),
	"latitude" : 39.3586111,
	"longitude" : 49.2469444
},
{
	"_id" : ObjectId("583450639e962f47deaa662a"),
	"altitude" : 545,
	"city" : "Zaqatala",
	"country" : "Azerbaijan",
	"id" : NumberInt("845"),
	"latitude" : 41.6336111,
	"longitude" : 46.6433334
},
{
	"_id" : ObjectId("583450639e962f47deaa662b"),
	"altitude" : 226,
	"city" : "Tartar",
	"country" : "Azerbaijan",
	"id" : NumberInt("846"),
	"latitude" : 40.345,
	"longitude" : 46.9288902
},
{
	"_id" : ObjectId("583450639e962f47deaa662c"),
	"altitude" : 15,
	"city" : "Bilasuvar",
	"country" : "Azerbaijan",
	"id" : NumberInt("847"),
	"latitude" : 39.4583333,
	"longitude" : 48.5449982
},
{
	"_id" : ObjectId("583450639e962f47deaa662d"),
	"altitude" : 691,
	"city" : "Xanlar",
	"country" : "Azerbaijan",
	"id" : NumberInt("848"),
	"latitude" : 40.5869444,
	"longitude" : 46.315834
},
{
	"_id" : ObjectId("583450639e962f47deaa662e"),
	"altitude" : 114,
	"city" : "Agsu",
	"country" : "Azerbaijan",
	"id" : NumberInt("849"),
	"latitude" : 40.5691667,
	"longitude" : 48.4008331
},
{
	"_id" : ObjectId("583450639e962f47deaa662f"),
	"altitude" : 618,
	"city" : "Qusar",
	"country" : "Azerbaijan",
	"id" : NumberInt("850"),
	"latitude" : 41.4263889,
	"longitude" : 48.4355545
},
{
	"_id" : ObjectId("583450639e962f47deaa6630"),
	"altitude" : 13,
	"city" : "Ucar",
	"country" : "Azerbaijan",
	"id" : NumberInt("851"),
	"latitude" : 40.5183333,
	"longitude" : 47.6541672
},
{
	"_id" : ObjectId("583450639e962f47deaa6631"),
	"altitude" : -4,
	"city" : "Mardakan",
	"country" : "Azerbaijan",
	"id" : NumberInt("852"),
	"latitude" : 40.4922222,
	"longitude" : 50.1388893
},
{
	"_id" : ObjectId("583450639e962f47deaa6632"),
	"altitude" : -24,
	"city" : "Astara",
	"country" : "Azerbaijan",
	"id" : NumberInt("853"),
	"latitude" : 38.4561111,
	"longitude" : 48.8786125
},
{
	"_id" : ObjectId("583450639e962f47deaa6633"),
	"altitude" : 47,
	"city" : "Binaqadi",
	"country" : "Azerbaijan",
	"id" : NumberInt("854"),
	"latitude" : 40.4758333,
	"longitude" : 49.8222237
},
{
	"_id" : ObjectId("583450639e962f47deaa6634"),
	"altitude" : 54,
	"city" : "Xudat",
	"country" : "Azerbaijan",
	"id" : NumberInt("855"),
	"latitude" : 41.6280556,
	"longitude" : 48.6827774
},
{
	"_id" : ObjectId("583450639e962f47deaa6635"),
	"altitude" : 616,
	"city" : "Ismayilli",
	"country" : "Azerbaijan",
	"id" : NumberInt("856"),
	"latitude" : 40.79,
	"longitude" : 48.1519432
},
{
	"_id" : ObjectId("583450639e962f47deaa6636"),
	"altitude" : -3,
	"city" : "Artyom",
	"country" : "Azerbaijan",
	"id" : NumberInt("857"),
	"latitude" : 40.4708333,
	"longitude" : 50.3216667
},
{
	"_id" : ObjectId("583450639e962f47deaa6637"),
	"altitude" : -15,
	"city" : "Qobustan",
	"country" : "Azerbaijan",
	"id" : NumberInt("858"),
	"latitude" : 40.0841667,
	"longitude" : 49.4158325
},
{
	"_id" : ObjectId("583450639e962f47deaa6638"),
	"altitude" : 3,
	"city" : "Goytapa",
	"country" : "Azerbaijan",
	"id" : NumberInt("859"),
	"latitude" : 39.1166667,
	"longitude" : 48.5952797
},
{
	"_id" : ObjectId("583450639e962f47deaa6639"),
	"altitude" : 413,
	"city" : "Tovuz",
	"country" : "Azerbaijan",
	"id" : NumberInt("860"),
	"latitude" : 40.9922222,
	"longitude" : 45.6288872
},
{
	"_id" : ObjectId("583450639e962f47deaa663a"),
	"altitude" : 338,
	"city" : "Agstafa",
	"country" : "Azerbaijan",
	"id" : NumberInt("861"),
	"latitude" : 41.1188889,
	"longitude" : 45.4538879
},
{
	"_id" : ObjectId("583450639e962f47deaa663b"),
	"altitude" : 616,
	"city" : "Qax",
	"country" : "Azerbaijan",
	"id" : NumberInt("862"),
	"latitude" : 41.4225,
	"longitude" : 46.9241676
},
{
	"_id" : ObjectId("583450639e962f47deaa663c"),
	"altitude" : 789,
	"city" : "Qabala",
	"country" : "Azerbaijan",
	"id" : NumberInt("863"),
	"latitude" : 40.9813889,
	"longitude" : 47.8458328
},
{
	"_id" : ObjectId("583450639e962f47deaa663d"),
	"altitude" : 130,
	"city" : "Badamdar",
	"country" : "Azerbaijan",
	"id" : NumberInt("864"),
	"latitude" : 40.3394444,
	"longitude" : 49.8038902
},
{
	"_id" : ObjectId("583450639e962f47deaa663e"),
	"altitude" : 61,
	"city" : "Balaxani",
	"country" : "Azerbaijan",
	"id" : NumberInt("865"),
	"latitude" : 40.4616667,
	"longitude" : 49.9199982
},
{
	"_id" : ObjectId("583450639e962f47deaa663f"),
	"altitude" : 707,
	"city" : "Culfa",
	"country" : "Azerbaijan",
	"id" : NumberInt("866"),
	"latitude" : 38.95,
	"longitude" : 45.6319427
},
{
	"_id" : ObjectId("583450639e962f47deaa6640"),
	"altitude" : 7,
	"city" : "Zardab",
	"country" : "Azerbaijan",
	"id" : NumberInt("867"),
	"latitude" : 40.2183333,
	"longitude" : 47.7083321
},
{
	"_id" : ObjectId("583450639e962f47deaa6641"),
	"altitude" : 68,
	"city" : "Saray",
	"country" : "Azerbaijan",
	"id" : NumberInt("868"),
	"latitude" : 40.5322222,
	"longitude" : 49.7163887
},
{
	"_id" : ObjectId("583450639e962f47deaa6642"),
	"altitude" : 452,
	"city" : "Agdara",
	"country" : "Azerbaijan",
	"id" : NumberInt("869"),
	"latitude" : 40.2152778,
	"longitude" : 46.8127785
},
{
	"_id" : ObjectId("583450639e962f47deaa6643"),
	"altitude" : -21,
	"city" : "Zira",
	"country" : "Azerbaijan",
	"id" : NumberInt("870"),
	"latitude" : 40.3636111,
	"longitude" : 50.2902794
},
{
	"_id" : ObjectId("583450639e962f47deaa6644"),
	"altitude" : 907,
	"city" : "Ordubad",
	"country" : "Azerbaijan",
	"id" : NumberInt("871"),
	"latitude" : 38.9080556,
	"longitude" : 46.0277786
},
{
	"_id" : ObjectId("583450639e962f47deaa6645"),
	"altitude" : -20,
	"city" : "Turkan",
	"country" : "Azerbaijan",
	"id" : NumberInt("872"),
	"latitude" : 40.3638889,
	"longitude" : 50.2150002
},
{
	"_id" : ObjectId("583450639e962f47deaa6646"),
	"altitude" : 1,
	"city" : "Masalli",
	"country" : "Azerbaijan",
	"id" : NumberInt("873"),
	"latitude" : 39.0341667,
	"longitude" : 48.665554
},
{
	"_id" : ObjectId("583450639e962f47deaa6647"),
	"altitude" : 388,
	"city" : "Balakan",
	"country" : "Azerbaijan",
	"id" : NumberInt("874"),
	"latitude" : 41.7258333,
	"longitude" : 46.4083328
},
{
	"_id" : ObjectId("583450639e962f47deaa6648"),
	"altitude" : 254,
	"city" : "Aliabad",
	"country" : "Azerbaijan",
	"id" : NumberInt("875"),
	"latitude" : 41.4783333,
	"longitude" : 46.6175003
},
{
	"_id" : ObjectId("583450639e962f47deaa6649"),
	"altitude" : 35,
	"city" : "Bilgah",
	"country" : "Azerbaijan",
	"id" : NumberInt("876"),
	"latitude" : 40.5680556,
	"longitude" : 50.0377769
},
{
	"_id" : ObjectId("583450639e962f47deaa664a"),
	"altitude" : 52,
	"city" : "Ramana",
	"country" : "Azerbaijan",
	"id" : NumberInt("877"),
	"latitude" : 40.4422222,
	"longitude" : 49.9805565
},
{
	"_id" : ObjectId("583450639e962f47deaa664b"),
	"altitude" : 1473,
	"city" : "Gadabay",
	"country" : "Azerbaijan",
	"id" : NumberInt("878"),
	"latitude" : 40.5655556,
	"longitude" : 45.8161125
},
{
	"_id" : ObjectId("583450639e962f47deaa664c"),
	"altitude" : -1,
	"city" : "Corat",
	"country" : "Azerbaijan",
	"id" : NumberInt("879"),
	"latitude" : 40.5725,
	"longitude" : 49.7063904
},
{
	"_id" : ObjectId("583450639e962f47deaa664d"),
	"altitude" : 570,
	"city" : "Cabrayil",
	"country" : "Azerbaijan",
	"id" : NumberInt("880"),
	"latitude" : 39.4,
	"longitude" : 47.0261116
},
{
	"_id" : ObjectId("583450639e962f47deaa664e"),
	"altitude" : 41,
	"city" : "Nardaran",
	"country" : "Azerbaijan",
	"id" : NumberInt("881"),
	"latitude" : 40.5561111,
	"longitude" : 50.0055542
},
{
	"_id" : ObjectId("583450639e962f47deaa664f"),
	"altitude" : 478,
	"city" : "Icari",
	"country" : "Azerbaijan",
	"id" : NumberInt("882"),
	"latitude" : 39.0822222,
	"longitude" : 46.6549988
},
{
	"_id" : ObjectId("583450639e962f47deaa6650"),
	"altitude" : 375,
	"city" : "Zayam",
	"country" : "Azerbaijan",
	"id" : NumberInt("883"),
	"latitude" : 40.8994444,
	"longitude" : 45.8858337
},
{
	"_id" : ObjectId("583450639e962f47deaa6651"),
	"altitude" : 74,
	"city" : "Qobu",
	"country" : "Azerbaijan",
	"id" : NumberInt("884"),
	"latitude" : 40.4047222,
	"longitude" : 49.7130547
},
{
	"_id" : ObjectId("583450639e962f47deaa6652"),
	"altitude" : 149,
	"city" : "Goranboy",
	"country" : "Azerbaijan",
	"id" : NumberInt("885"),
	"latitude" : 40.6102778,
	"longitude" : 46.7897224
},
{
	"_id" : ObjectId("583450639e962f47deaa6653"),
	"altitude" : 1108,
	"city" : "Lerik",
	"country" : "Azerbaijan",
	"id" : NumberInt("886"),
	"latitude" : 38.7752778,
	"longitude" : 48.4152794
},
{
	"_id" : ObjectId("583450639e962f47deaa6654"),
	"altitude" : -7,
	"city" : "Banka",
	"country" : "Azerbaijan",
	"id" : NumberInt("887"),
	"latitude" : 39.42,
	"longitude" : 49.2475014
},
{
	"_id" : ObjectId("583450639e962f47deaa6655"),
	"altitude" : 199,
	"city" : "Naftalan",
	"country" : "Azerbaijan",
	"id" : NumberInt("888"),
	"latitude" : 40.5066667,
	"longitude" : 46.8250008
},
{
	"_id" : ObjectId("583450639e962f47deaa6656"),
	"altitude" : 540,
	"city" : "Qubadli",
	"country" : "Azerbaijan",
	"id" : NumberInt("889"),
	"latitude" : 39.3438889,
	"longitude" : 46.5797234
},
{
	"_id" : ObjectId("583450639e962f47deaa6657"),
	"altitude" : 44,
	"city" : "Aran",
	"country" : "Azerbaijan",
	"id" : NumberInt("890"),
	"latitude" : 40.6252778,
	"longitude" : 46.9755554
},
{
	"_id" : ObjectId("583450639e962f47deaa6658"),
	"altitude" : 903,
	"city" : "Cinarli",
	"country" : "Azerbaijan",
	"id" : NumberInt("891"),
	"latitude" : 41.4725,
	"longitude" : 46.9111099
},
{
	"_id" : ObjectId("583450639e962f47deaa6659"),
	"altitude" : 335,
	"city" : "Mincivan",
	"country" : "Azerbaijan",
	"id" : NumberInt("892"),
	"latitude" : 39.03,
	"longitude" : 46.7186127
},
{
	"_id" : ObjectId("583450639e962f47deaa665a"),
	"altitude" : 122,
	"city" : "Qizilhacili",
	"country" : "Azerbaijan",
	"id" : NumberInt("893"),
	"latitude" : 40.5808333,
	"longitude" : 46.8502769
},
{
	"_id" : ObjectId("583450639e962f47deaa665b"),
	"altitude" : -9,
	"city" : "Boradigah",
	"country" : "Azerbaijan",
	"id" : NumberInt("894"),
	"latitude" : 38.9277778,
	"longitude" : 48.7086105
},
{
	"_id" : ObjectId("583450639e962f47deaa665c"),
	"altitude" : 584,
	"city" : "Xocali",
	"country" : "Azerbaijan",
	"id" : NumberInt("895"),
	"latitude" : 39.9111111,
	"longitude" : 46.7891655
},
{
	"_id" : ObjectId("583450639e962f47deaa665d"),
	"altitude" : 45,
	"city" : "Ceyranbatan",
	"country" : "Azerbaijan",
	"id" : NumberInt("896"),
	"latitude" : 40.5408333,
	"longitude" : 49.6597214
},
{
	"_id" : ObjectId("583450639e962f47deaa665e"),
	"altitude" : 239,
	"city" : "Qarayeri",
	"country" : "Azerbaijan",
	"id" : NumberInt("897"),
	"latitude" : 40.7916667,
	"longitude" : 46.3213882
},
{
	"_id" : ObjectId("583450639e962f47deaa665f"),
	"altitude" : 36,
	"city" : "Xocasan",
	"country" : "Azerbaijan",
	"id" : NumberInt("898"),
	"latitude" : 40.4122222,
	"longitude" : 49.7716675
},
{
	"_id" : ObjectId("583450639e962f47deaa6660"),
	"altitude" : 336,
	"city" : "Xocavand",
	"country" : "Azerbaijan",
	"id" : NumberInt("899"),
	"latitude" : 39.7952778,
	"longitude" : 47.1130562
},
{
	"_id" : ObjectId("583450639e962f47deaa6661"),
	"altitude" : -11,
	"city" : "Kijoba",
	"country" : "Azerbaijan",
	"id" : NumberInt("900"),
	"latitude" : 38.5327778,
	"longitude" : 48.8166656
},
{
	"_id" : ObjectId("583450639e962f47deaa6662"),
	"altitude" : -12,
	"city" : "Mugan",
	"country" : "Azerbaijan",
	"id" : NumberInt("901"),
	"latitude" : 40.0986111,
	"longitude" : 48.8188896
},
{
	"_id" : ObjectId("583450639e962f47deaa6663"),
	"altitude" : 333,
	"city" : "Dalilar",
	"country" : "Azerbaijan",
	"id" : NumberInt("902"),
	"latitude" : 40.8627778,
	"longitude" : 46.0366669
},
{
	"_id" : ObjectId("583450639e962f47deaa6664"),
	"altitude" : -8,
	"city" : "Hasanabad",
	"country" : "Azerbaijan",
	"id" : NumberInt("903"),
	"latitude" : 39.3213889,
	"longitude" : 49.2091675
},
{
	"_id" : ObjectId("583450639e962f47deaa6665"),
	"altitude" : -7,
	"city" : "Qaracala",
	"country" : "Azerbaijan",
	"id" : NumberInt("904"),
	"latitude" : 39.8077778,
	"longitude" : 48.9338875
},
{
	"_id" : ObjectId("583450639e962f47deaa6666"),
	"altitude" : 979,
	"city" : "Yardimli",
	"country" : "Azerbaijan",
	"id" : NumberInt("905"),
	"latitude" : 38.9205556,
	"longitude" : 48.2372208
},
{
	"_id" : ObjectId("583450639e962f47deaa6667"),
	"altitude" : -7,
	"city" : "Xilli",
	"country" : "Azerbaijan",
	"id" : NumberInt("906"),
	"latitude" : 39.4266667,
	"longitude" : 49.1063881
},
{
	"_id" : ObjectId("583450639e962f47deaa6668"),
	"altitude" : -9999,
	"city" : "Manama",
	"country" : "Bahrain",
	"id" : NumberInt("907"),
	"latitude" : 26.2361111,
	"longitude" : 50.5830574
},
{
	"_id" : ObjectId("583450639e962f47deaa6669"),
	"altitude" : 13,
	"city" : "Al Muharraq",
	"country" : "Bahrain",
	"id" : NumberInt("908"),
	"latitude" : 26.2572222,
	"longitude" : 50.6119461
},
{
	"_id" : ObjectId("583450639e962f47deaa666a"),
	"altitude" : 2,
	"city" : "Dar Kulayb",
	"country" : "Bahrain",
	"id" : NumberInt("909"),
	"latitude" : 26.0686111,
	"longitude" : 50.5038872
},
{
	"_id" : ObjectId("583450639e962f47deaa666b"),
	"altitude" : 5,
	"city" : "Madinat `Isa",
	"country" : "Bahrain",
	"id" : NumberInt("910"),
	"latitude" : 26.173611,
	"longitude" : 50.5477791
},
{
	"_id" : ObjectId("583450639e962f47deaa666c"),
	"altitude" : 6,
	"city" : "Sitrah",
	"country" : "Bahrain",
	"id" : NumberInt("911"),
	"latitude" : 26.1547222,
	"longitude" : 50.6205559
},
{
	"_id" : ObjectId("583450639e962f47deaa666d"),
	"altitude" : 1,
	"city" : "Jidd Hafs",
	"country" : "Bahrain",
	"id" : NumberInt("912"),
	"latitude" : 26.2186111,
	"longitude" : 50.5477791
},
{
	"_id" : ObjectId("583450639e962f47deaa666e"),
	"altitude" : 3,
	"city" : "Al Hadd",
	"country" : "Bahrain",
	"id" : NumberInt("913"),
	"latitude" : 26.2455556,
	"longitude" : 50.6541672
},
{
	"_id" : ObjectId("583450639e962f47deaa666f"),
	"altitude" : 4,
	"city" : "Dhaka",
	"country" : "Bangladesh",
	"id" : NumberInt("914"),
	"latitude" : 23.7230556,
	"longitude" : 90.4086075
},
{
	"_id" : ObjectId("583450639e962f47deaa6670"),
	"altitude" : 7,
	"city" : "Chittagong",
	"country" : "Bangladesh",
	"id" : NumberInt("915"),
	"latitude" : 22.3330556,
	"longitude" : 91.8363876
},
{
	"_id" : ObjectId("583450639e962f47deaa6671"),
	"altitude" : 9,
	"city" : "Khulna",
	"country" : "Bangladesh",
	"id" : NumberInt("916"),
	"latitude" : 22.8,
	"longitude" : 89.5500031
},
{
	"_id" : ObjectId("583450639e962f47deaa6672"),
	"altitude" : 31,
	"city" : "Rajshahi",
	"country" : "Bangladesh",
	"id" : NumberInt("917"),
	"latitude" : 24.3666667,
	"longitude" : 88.5999985
},
{
	"_id" : ObjectId("583450639e962f47deaa6673"),
	"altitude" : 12,
	"city" : "Comilla",
	"country" : "Bangladesh",
	"id" : NumberInt("918"),
	"latitude" : 23.4577778,
	"longitude" : 91.2044449
},
{
	"_id" : ObjectId("583450639e962f47deaa6674"),
	"altitude" : 4,
	"city" : "Tungi",
	"country" : "Bangladesh",
	"id" : NumberInt("919"),
	"latitude" : 23.89,
	"longitude" : 90.4058304
},
{
	"_id" : ObjectId("583450639e962f47deaa6675"),
	"altitude" : 17,
	"city" : "Mymensingh",
	"country" : "Bangladesh",
	"id" : NumberInt("920"),
	"latitude" : 24.75,
	"longitude" : 90.4000015
},
{
	"_id" : ObjectId("583450639e962f47deaa6676"),
	"altitude" : 36,
	"city" : "Rangpur",
	"country" : "Bangladesh",
	"id" : NumberInt("921"),
	"latitude" : 25.75,
	"longitude" : 89.25
},
{
	"_id" : ObjectId("583450639e962f47deaa6677"),
	"altitude" : 4,
	"city" : "Narsingdi",
	"country" : "Bangladesh",
	"id" : NumberInt("922"),
	"latitude" : 23.9208333,
	"longitude" : 90.7180557
},
{
	"_id" : ObjectId("583450639e962f47deaa6678"),
	"altitude" : 15,
	"city" : "Jessore",
	"country" : "Bangladesh",
	"id" : NumberInt("923"),
	"latitude" : 23.1666667,
	"longitude" : 89.2166672
},
{
	"_id" : ObjectId("583450639e962f47deaa6679"),
	"altitude" : 9,
	"city" : "Sylhet",
	"country" : "Bangladesh",
	"id" : NumberInt("924"),
	"latitude" : 24.8966667,
	"longitude" : 91.871666
},
{
	"_id" : ObjectId("583450639e962f47deaa667a"),
	"altitude" : 4,
	"city" : "Narayanganj",
	"country" : "Bangladesh",
	"id" : NumberInt("925"),
	"latitude" : 23.6233333,
	"longitude" : 90.5011139
},
{
	"_id" : ObjectId("583450639e962f47deaa667b"),
	"altitude" : 35,
	"city" : "Dinajpur",
	"country" : "Bangladesh",
	"id" : NumberInt("926"),
	"latitude" : 25.6333333,
	"longitude" : 88.6333313
},
{
	"_id" : ObjectId("583450639e962f47deaa667c"),
	"altitude" : 2,
	"city" : "Barisal",
	"country" : "Bangladesh",
	"id" : NumberInt("927"),
	"latitude" : 22.7019444,
	"longitude" : 90.371109
},
{
	"_id" : ObjectId("583450639e962f47deaa667d"),
	"altitude" : 36,
	"city" : "Saidpur",
	"country" : "Bangladesh",
	"id" : NumberInt("928"),
	"latitude" : 25.7776918,
	"longitude" : 88.8916931
},
{
	"_id" : ObjectId("583450639e962f47deaa667e"),
	"altitude" : 14,
	"city" : "Par Naogaon",
	"country" : "Bangladesh",
	"id" : NumberInt("929"),
	"latitude" : 24.8,
	"longitude" : 88.9499969
},
{
	"_id" : ObjectId("583450639e962f47deaa667f"),
	"altitude" : 13,
	"city" : "Tangail",
	"country" : "Bangladesh",
	"id" : NumberInt("930"),
	"latitude" : 24.25,
	"longitude" : 89.9166641
},
{
	"_id" : ObjectId("583450639e962f47deaa6680"),
	"altitude" : 12,
	"city" : "Jamalpur",
	"country" : "Bangladesh",
	"id" : NumberInt("931"),
	"latitude" : 24.9166667,
	"longitude" : 89.9333344
},
{
	"_id" : ObjectId("583450639e962f47deaa6681"),
	"altitude" : 13,
	"city" : "Sirajganj",
	"country" : "Bangladesh",
	"id" : NumberInt("932"),
	"latitude" : 24.45,
	"longitude" : 89.7166672
},
{
	"_id" : ObjectId("583450639e962f47deaa6682"),
	"altitude" : 21,
	"city" : "Nawabganj",
	"country" : "Bangladesh",
	"id" : NumberInt("933"),
	"latitude" : 24.6,
	"longitude" : 88.2833328
},
{
	"_id" : ObjectId("583450639e962f47deaa6683"),
	"altitude" : 8,
	"city" : "Pabna",
	"country" : "Bangladesh",
	"id" : NumberInt("934"),
	"latitude" : 24,
	"longitude" : 89.25
},
{
	"_id" : ObjectId("583450639e962f47deaa6684"),
	"altitude" : 26,
	"city" : "Kushtia",
	"country" : "Bangladesh",
	"id" : NumberInt("935"),
	"latitude" : 23.9166667,
	"longitude" : 89.1166687
},
{
	"_id" : ObjectId("583450639e962f47deaa6685"),
	"altitude" : 14,
	"city" : "Satkhira",
	"country" : "Bangladesh",
	"id" : NumberInt("936"),
	"latitude" : 22.7166667,
	"longitude" : 89.0999985
},
{
	"_id" : ObjectId("583450639e962f47deaa6686"),
	"altitude" : 11,
	"city" : "Faridpur",
	"country" : "Bangladesh",
	"id" : NumberInt("937"),
	"latitude" : 23.6,
	"longitude" : 89.8333359
},
{
	"_id" : ObjectId("583450639e962f47deaa6687"),
	"altitude" : 14,
	"city" : "Sherpur",
	"country" : "Bangladesh",
	"id" : NumberInt("938"),
	"latitude" : 25.0166667,
	"longitude" : 90.0166702
},
{
	"_id" : ObjectId("583450639e962f47deaa6688"),
	"altitude" : 16,
	"city" : "Bhairab Bazar",
	"country" : "Bangladesh",
	"id" : NumberInt("939"),
	"latitude" : 24.0666667,
	"longitude" : 90.9666672
},
{
	"_id" : ObjectId("583450639e962f47deaa6689"),
	"altitude" : 17,
	"city" : "Shahzadpur",
	"country" : "Bangladesh",
	"id" : NumberInt("940"),
	"latitude" : 24.1666667,
	"longitude" : 89.5999985
},
{
	"_id" : ObjectId("583450639e962f47deaa668a"),
	"altitude" : 1,
	"city" : "Bhola",
	"country" : "Bangladesh",
	"id" : NumberInt("941"),
	"latitude" : 22.6833333,
	"longitude" : 90.6500015
},
{
	"_id" : ObjectId("583450639e962f47deaa668b"),
	"altitude" : 10,
	"city" : "Kishorganj",
	"country" : "Bangladesh",
	"id" : NumberInt("942"),
	"latitude" : 24.4333333,
	"longitude" : 90.7666702
},
{
	"_id" : ObjectId("583450639e962f47deaa668c"),
	"altitude" : 6,
	"city" : "Habiganj",
	"country" : "Bangladesh",
	"id" : NumberInt("943"),
	"latitude" : 24.3833333,
	"longitude" : 91.4166641
},
{
	"_id" : ObjectId("583450639e962f47deaa668d"),
	"altitude" : -9999,
	"city" : "Madaripur",
	"country" : "Bangladesh",
	"id" : NumberInt("944"),
	"latitude" : 23.1752778,
	"longitude" : 90.207222
},
{
	"_id" : ObjectId("583450639e962f47deaa668e"),
	"altitude" : 5,
	"city" : "Feni",
	"country" : "Bangladesh",
	"id" : NumberInt("945"),
	"latitude" : 23.0186111,
	"longitude" : 91.4100037
},
{
	"_id" : ObjectId("583450639e962f47deaa668f"),
	"altitude" : 10,
	"city" : "Laksham",
	"country" : "Bangladesh",
	"id" : NumberInt("946"),
	"latitude" : 23.2472222,
	"longitude" : 91.1425018
},
{
	"_id" : ObjectId("583450639e962f47deaa6690"),
	"altitude" : 30,
	"city" : "Ishurdi",
	"country" : "Bangladesh",
	"id" : NumberInt("947"),
	"latitude" : 24.1333333,
	"longitude" : 89.0833359
},
{
	"_id" : ObjectId("583450639e962f47deaa6691"),
	"altitude" : 9,
	"city" : "Sarishabari",
	"country" : "Bangladesh",
	"id" : NumberInt("948"),
	"latitude" : 24.7333333,
	"longitude" : 89.8333359
},
{
	"_id" : ObjectId("583450639e962f47deaa6692"),
	"altitude" : 2,
	"city" : "Netrakona",
	"country" : "Bangladesh",
	"id" : NumberInt("949"),
	"latitude" : 24.8833333,
	"longitude" : 90.7166672
},
{
	"_id" : ObjectId("583450639e962f47deaa6693"),
	"altitude" : 29,
	"city" : "Jaipur Hat",
	"country" : "Bangladesh",
	"id" : NumberInt("950"),
	"latitude" : 25.1,
	"longitude" : 89.0166702
},
{
	"_id" : ObjectId("583450639e962f47deaa6694"),
	"altitude" : 37,
	"city" : "Thakurgaon",
	"country" : "Bangladesh",
	"id" : NumberInt("951"),
	"latitude" : 26.0333333,
	"longitude" : 88.4666672
},
{
	"_id" : ObjectId("583450639e962f47deaa6695"),
	"altitude" : 5,
	"city" : "Palang",
	"country" : "Bangladesh",
	"id" : NumberInt("952"),
	"latitude" : 23.2166667,
	"longitude" : 90.3499985
},
{
	"_id" : ObjectId("583450639e962f47deaa6696"),
	"altitude" : 32,
	"city" : "Lalmanir Hat",
	"country" : "Bangladesh",
	"id" : NumberInt("953"),
	"latitude" : 25.9,
	"longitude" : 89.4499969
},
{
	"_id" : ObjectId("583450639e962f47deaa6697"),
	"altitude" : 3,
	"city" : "Raipur",
	"country" : "Bangladesh",
	"id" : NumberInt("954"),
	"latitude" : 23.05,
	"longitude" : 90.7666702
},
{
	"_id" : ObjectId("583450639e962f47deaa6698"),
	"altitude" : 6,
	"city" : "Tungipara",
	"country" : "Bangladesh",
	"id" : NumberInt("955"),
	"latitude" : 22.9,
	"longitude" : 89.9166641
},
{
	"_id" : ObjectId("583450639e962f47deaa6699"),
	"altitude" : 2,
	"city" : "Lakshmipur",
	"country" : "Bangladesh",
	"id" : NumberInt("956"),
	"latitude" : 22.95,
	"longitude" : 90.8333359
},
{
	"_id" : ObjectId("583450639e962f47deaa669a"),
	"altitude" : 18,
	"city" : "Kaptaimukh",
	"country" : "Bangladesh",
	"id" : NumberInt("957"),
	"latitude" : 22.4713889,
	"longitude" : 92.2322235
},
{
	"_id" : ObjectId("583450639e962f47deaa669b"),
	"altitude" : 13,
	"city" : "Moulvi Bazar",
	"country" : "Bangladesh",
	"id" : NumberInt("958"),
	"latitude" : 24.4833333,
	"longitude" : 91.7833328
},
{
	"_id" : ObjectId("583450639e962f47deaa669c"),
	"altitude" : 3,
	"city" : "Ramganj",
	"country" : "Bangladesh",
	"id" : NumberInt("959"),
	"latitude" : 23.1,
	"longitude" : 90.8499985
},
{
	"_id" : ObjectId("583450639e962f47deaa669d"),
	"altitude" : 14,
	"city" : "Narail",
	"country" : "Bangladesh",
	"id" : NumberInt("960"),
	"latitude" : 23.1666667,
	"longitude" : 89.5
},
{
	"_id" : ObjectId("583450639e962f47deaa669e"),
	"altitude" : 3,
	"city" : "Pirojpur",
	"country" : "Bangladesh",
	"id" : NumberInt("961"),
	"latitude" : 22.5666667,
	"longitude" : 89.9833298
},
{
	"_id" : ObjectId("583450639e962f47deaa669f"),
	"altitude" : 6,
	"city" : "Sandwip",
	"country" : "Bangladesh",
	"id" : NumberInt("962"),
	"latitude" : 22.4677778,
	"longitude" : 91.4561081
},
{
	"_id" : ObjectId("583450639e962f47deaa66a0"),
	"altitude" : 6,
	"city" : "Satkania",
	"country" : "Bangladesh",
	"id" : NumberInt("963"),
	"latitude" : 22.0755556,
	"longitude" : 92.0513916
},
{
	"_id" : ObjectId("583450639e962f47deaa66a1"),
	"altitude" : 7,
	"city" : "Patiya",
	"country" : "Bangladesh",
	"id" : NumberInt("964"),
	"latitude" : 22.2947222,
	"longitude" : 91.9791641
},
{
	"_id" : ObjectId("583450639e962f47deaa66a2"),
	"altitude" : 48,
	"city" : "Khagrachari",
	"country" : "Bangladesh",
	"id" : NumberInt("965"),
	"latitude" : 23.1,
	"longitude" : 91.9666672
},
{
	"_id" : ObjectId("583450639e962f47deaa66a3"),
	"altitude" : 18,
	"city" : "Chilmari",
	"country" : "Bangladesh",
	"id" : NumberInt("966"),
	"latitude" : 25.55,
	"longitude" : 89.7166672
},
{
	"_id" : ObjectId("583450639e962f47deaa66a4"),
	"altitude" : 40,
	"city" : "Nageswari",
	"country" : "Bangladesh",
	"id" : NumberInt("967"),
	"latitude" : 25.9666667,
	"longitude" : 89.7166672
},
{
	"_id" : ObjectId("583450639e962f47deaa66a5"),
	"altitude" : 59,
	"city" : "Panchagarh",
	"country" : "Bangladesh",
	"id" : NumberInt("968"),
	"latitude" : 26.3333333,
	"longitude" : 88.5666656
},
{
	"_id" : ObjectId("583450639e962f47deaa66a6"),
	"altitude" : 2,
	"city" : "Dakshin Char Fasson",
	"country" : "Bangladesh",
	"id" : NumberInt("969"),
	"latitude" : 22.2166667,
	"longitude" : 90.7333298
},
{
	"_id" : ObjectId("583450639e962f47deaa6429"),
	"altitude" : 259,
	"city" : "Minneapolis",
	"country" : "United States",
	"id" : NumberInt("332"),
	"latitude" : 44.9799654,
	"longitude" : -93.2638397
},
{
	"_id" : ObjectId("583450639e962f47deaa642a"),
	"altitude" : 1829,
	"city" : "Colorado Springs",
	"country" : "United States",
	"id" : NumberInt("333"),
	"latitude" : 38.8338816,
	"longitude" : -104.8213654
},
{
	"_id" : ObjectId("583450639e962f47deaa642b"),
	"altitude" : 402,
	"city" : "Wichita",
	"country" : "United States",
	"id" : NumberInt("334"),
	"latitude" : 37.6922361,
	"longitude" : -97.3375473
},
{
	"_id" : ObjectId("583450639e962f47deaa642c"),
	"altitude" : 30,
	"city" : "Santa Ana",
	"country" : "United States",
	"id" : NumberInt("335"),
	"latitude" : 33.7455731,
	"longitude" : -117.867836
},
{
	"_id" : ObjectId("583450639e962f47deaa642d"),
	"altitude" : 122,
	"city" : "West Raleigh",
	"country" : "United States",
	"id" : NumberInt("336"),
	"latitude" : 35.7868182,
	"longitude" : -78.6638947
},
{
	"_id" : ObjectId("583450639e962f47deaa642e"),
	"altitude" : 184,
	"city" : "Arlington",
	"country" : "United States",
	"id" : NumberInt("337"),
	"latitude" : 32.735687,
	"longitude" : -97.1080627
},
{
	"_id" : ObjectId("583450639e962f47deaa642f"),
	"altitude" : 40,
	"city" : "Anaheim",
	"country" : "United States",
	"id" : NumberInt("338"),
	"latitude" : 33.8352932,
	"longitude" : -117.914505
},
{
	"_id" : ObjectId("583450639e962f47deaa6430"),
	"altitude" : 1,
	"city" : "Tampa",
	"country" : "United States",
	"id" : NumberInt("339"),
	"latitude" : 27.9475216,
	"longitude" : -82.4584274
},
{
	"_id" : ObjectId("583450639e962f47deaa6431"),
	"altitude" : 135,
	"city" : "Saint Louis",
	"country" : "United States",
	"id" : NumberInt("340"),
	"latitude" : 38.6272733,
	"longitude" : -90.1978912
},
{
	"_id" : ObjectId("583450639e962f47deaa6432"),
	"altitude" : 235,
	"city" : "Pittsburgh",
	"country" : "United States",
	"id" : NumberInt("341"),
	"latitude" : 40.4406248,
	"longitude" : -79.9958878
},
{
	"_id" : ObjectId("583450639e962f47deaa6433"),
	"altitude" : 191,
	"city" : "Toledo",
	"country" : "United States",
	"id" : NumberInt("342"),
	"latitude" : 41.6639383,
	"longitude" : -83.5552139
},
{
	"_id" : ObjectId("583450639e962f47deaa6434"),
	"altitude" : 203,
	"city" : "Cincinnati",
	"country" : "United States",
	"id" : NumberInt("343"),
	"latitude" : 39.1620036,
	"longitude" : -84.4568863
},
{
	"_id" : ObjectId("583450639e962f47deaa6435"),
	"altitude" : 262,
	"city" : "Riverside",
	"country" : "United States",
	"id" : NumberInt("344"),
	"latitude" : 33.9533487,
	"longitude" : -117.3961563
},
{
	"_id" : ObjectId("583450639e962f47deaa6436"),
	"altitude" : 122,
	"city" : "Bakersfield",
	"country" : "United States",
	"id" : NumberInt("345"),
	"latitude" : 35.3732921,
	"longitude" : -119.0187149
},
{
	"_id" : ObjectId("583450639e962f47deaa6437"),
	"altitude" : 4,
	"city" : "Stockton",
	"country" : "United States",
	"id" : NumberInt("346"),
	"latitude" : 37.9577016,
	"longitude" : -121.2907791
},
{
	"_id" : ObjectId("583450639e962f47deaa6438"),
	"altitude" : 16,
	"city" : "Newark",
	"country" : "United States",
	"id" : NumberInt("347"),
	"latitude" : 40.735657,
	"longitude" : -74.1723633
},
{
	"_id" : ObjectId("583450639e962f47deaa6439"),
	"altitude" : 183,
	"city" : "Buffalo",
	"country" : "United States",
	"id" : NumberInt("348"),
	"latitude" : 42.8864468,
	"longitude" : -78.8783722
},
{
	"_id" : ObjectId("583450639e962f47deaa643a"),
	"altitude" : 6,
	"city" : "Corpus Christi",
	"country" : "United States",
	"id" : NumberInt("349"),
	"latitude" : 27.8005828,
	"longitude" : -97.3963776
},
{
	"_id" : ObjectId("583450639e962f47deaa643b"),
	"altitude" : 1647,
	"city" : "Aurora",
	"country" : "United States",
	"id" : NumberInt("350"),
	"latitude" : 39.7294319,
	"longitude" : -104.8319168
},
{
	"_id" : ObjectId("583450639e962f47deaa643c"),
	"altitude" : 91,
	"city" : "Raleigh",
	"country" : "United States",
	"id" : NumberInt("351"),
	"latitude" : 35.772096,
	"longitude" : -78.6386108
},
{
	"_id" : ObjectId("583450639e962f47deaa643d"),
	"altitude" : 235,
	"city" : "Saint Paul",
	"country" : "United States",
	"id" : NumberInt("352"),
	"latitude" : 44.9444101,
	"longitude" : -93.093277
},
{
	"_id" : ObjectId("583450639e962f47deaa643e"),
	"altitude" : 312,
	"city" : "Lexington-Fayette",
	"country" : "United States",
	"id" : NumberInt("353"),
	"latitude" : 38.0497996,
	"longitude" : -84.4585495
},
{
	"_id" : ObjectId("583450639e962f47deaa643f"),
	"altitude" : 0,
	"city" : "Anchorage",
	"country" : "United States",
	"id" : NumberInt("354"),
	"latitude" : 61.2180556,
	"longitude" : -149.9002838
},
{
	"_id" : ObjectId("583450639e962f47deaa6440"),
	"altitude" : 200,
	"city" : "Plano",
	"country" : "United States",
	"id" : NumberInt("355"),
	"latitude" : 33.0198431,
	"longitude" : -96.6988831
},
{
	"_id" : ObjectId("583450639e962f47deaa6441"),
	"altitude" : 14,
	"city" : "Saint Petersburg",
	"country" : "United States",
	"id" : NumberInt("356"),
	"latitude" : 27.7708606,
	"longitude" : -82.6792679
},
{
	"_id" : ObjectId("583450639e962f47deaa6442"),
	"altitude" : 128,
	"city" : "Louisville",
	"country" : "United States",
	"id" : NumberInt("357"),
	"latitude" : 38.2542376,
	"longitude" : -85.759407
},
{
	"_id" : ObjectId("583450639e962f47deaa6443"),
	"altitude" : 382,
	"city" : "Lincoln",
	"country" : "United States",
	"id" : NumberInt("358"),
	"latitude" : 40.8000011,
	"longitude" : -96.6669617
},
{
	"_id" : ObjectId("583450639e962f47deaa6444"),
	"altitude" : 336,
	"city" : "Glendale",
	"country" : "United States",
	"id" : NumberInt("359"),
	"latitude" : 33.5386523,
	"longitude" : -112.1859894
},
{
	"_id" : ObjectId("583450639e962f47deaa6445"),
	"altitude" : 580,
	"city" : "Henderson",
	"country" : "United States",
	"id" : NumberInt("360"),
	"latitude" : 36.0396988,
	"longitude" : -114.9819336
},
{
	"_id" : ObjectId("583450639e962f47deaa6446"),
	"altitude" : 14,
	"city" : "Jersey City",
	"country" : "United States",
	"id" : NumberInt("361"),
	"latitude" : 40.7281575,
	"longitude" : -74.0776443
},
{
	"_id" : ObjectId("583450639e962f47deaa6447"),
	"altitude" : 3,
	"city" : "Norfolk",
	"country" : "United States",
	"id" : NumberInt("362"),
	"latitude" : 36.8468146,
	"longitude" : -76.2852173
},
{
	"_id" : ObjectId("583450639e962f47deaa6448"),
	"altitude" : 380,
	"city" : "Chandler",
	"country" : "United States",
	"id" : NumberInt("363"),
	"latitude" : 33.3061605,
	"longitude" : -111.8412476
},
{
	"_id" : ObjectId("583450639e962f47deaa6449"),
	"altitude" : 244,
	"city" : "Greensboro",
	"country" : "United States",
	"id" : NumberInt("364"),
	"latitude" : 36.0726355,
	"longitude" : -79.7919769
},
{
	"_id" : ObjectId("583450639e962f47deaa644a"),
	"altitude" : 173,
	"city" : "Birmingham",
	"country" : "United States",
	"id" : NumberInt("365"),
	"latitude" : 33.5206608,
	"longitude" : -86.8024902
},
{
	"_id" : ObjectId("583450639e962f47deaa644b"),
	"altitude" : 243,
	"city" : "Fort Wayne",
	"country" : "United States",
	"id" : NumberInt("366"),
	"latitude" : 41.1306041,
	"longitude" : -85.1288605
},
{
	"_id" : ObjectId("583450639e962f47deaa644c"),
	"altitude" : 298,
	"city" : "Lexington",
	"country" : "United States",
	"id" : NumberInt("367"),
	"latitude" : 37.9886892,
	"longitude" : -84.4777145
},
{
	"_id" : ObjectId("583450639e962f47deaa644d"),
	"altitude" : 2,
	"city" : "Hialeah",
	"country" : "United States",
	"id" : NumberInt("368"),
	"latitude" : 25.8575963,
	"longitude" : -80.2781067
},
{
	"_id" : ObjectId("583450639e962f47deaa644e"),
	"altitude" : 270,
	"city" : "Madison",
	"country" : "United States",
	"id" : NumberInt("369"),
	"latitude" : 43.0730517,
	"longitude" : -89.4012299
},
{
	"_id" : ObjectId("583450639e962f47deaa644f"),
	"altitude" : 0,
	"city" : "Baton Rouge",
	"country" : "United States",
	"id" : NumberInt("370"),
	"latitude" : 30.4507462,
	"longitude" : -91.1545486
},
{
	"_id" : ObjectId("583450639e962f47deaa6450"),
	"altitude" : 165,
	"city" : "Garland",
	"country" : "United States",
	"id" : NumberInt("371"),
	"latitude" : 32.912624,
	"longitude" : -96.6388855
},
{
	"_id" : ObjectId("583450639e962f47deaa6451"),
	"altitude" : 12,
	"city" : "Modesto",
	"country" : "United States",
	"id" : NumberInt("372"),
	"latitude" : 37.6390972,
	"longitude" : -120.9968796
},
{
	"_id" : ObjectId("583450639e962f47deaa6452"),
	"altitude" : 626,
	"city" : "Paradise",
	"country" : "United States",
	"id" : NumberInt("373"),
	"latitude" : 36.0971945,
	"longitude" : -115.1466675
},
{
	"_id" : ObjectId("583450639e962f47deaa6453"),
	"altitude" : 23,
	"city" : "Chula Vista",
	"country" : "United States",
	"id" : NumberInt("374"),
	"latitude" : 32.6400541,
	"longitude" : -117.084198
},
{
	"_id" : ObjectId("583450639e962f47deaa6454"),
	"altitude" : 976,
	"city" : "Lubbock",
	"country" : "United States",
	"id" : NumberInt("375"),
	"latitude" : 33.5778631,
	"longitude" : -101.8551636
},
{
	"_id" : ObjectId("583450639e962f47deaa6455"),
	"altitude" : 155,
	"city" : "Rochester",
	"country" : "United States",
	"id" : NumberInt("376"),
	"latitude" : 43.1547845,
	"longitude" : -77.6155548
},
{
	"_id" : ObjectId("583450639e962f47deaa6456"),
	"altitude" : 115,
	"city" : "Laredo",
	"country" : "United States",
	"id" : NumberInt("377"),
	"latitude" : 27.506407,
	"longitude" : -99.5075455
},
{
	"_id" : ObjectId("583450639e962f47deaa6457"),
	"altitude" : 290,
	"city" : "Akron",
	"country" : "United States",
	"id" : NumberInt("378"),
	"latitude" : 41.0814447,
	"longitude" : -81.5190048
},
{
	"_id" : ObjectId("583450639e962f47deaa6458"),
	"altitude" : 34,
	"city" : "Orlando",
	"country" : "United States",
	"id" : NumberInt("379"),
	"latitude" : 28.5383355,
	"longitude" : -81.3792343
},
{
	"_id" : ObjectId("583450639e962f47deaa6459"),
	"altitude" : 122,
	"city" : "Durham",
	"country" : "United States",
	"id" : NumberInt("380"),
	"latitude" : 35.9940329,
	"longitude" : -78.8986206
},
{
	"_id" : ObjectId("583450639e962f47deaa645a"),
	"altitude" : 174,
	"city" : "North Glendale",
	"country" : "United States",
	"id" : NumberInt("381"),
	"latitude" : 34.1605626,
	"longitude" : -118.2645187
},
{
	"_id" : ObjectId("583450639e962f47deaa645b"),
	"altitude" : 386,
	"city" : "Scottsdale",
	"country" : "United States",
	"id" : NumberInt("382"),
	"latitude" : 33.5092103,
	"longitude" : -111.8990326
},
{
	"_id" : ObjectId("583450639e962f47deaa645c"),
	"altitude" : 1011,
	"city" : "Andorra la Vella",
	"country" : "Andorra",
	"id" : NumberInt("383"),
	"latitude" : 42.5051514,
	"longitude" : 1.5150619
},
{
	"_id" : ObjectId("583450639e962f47deaa645d"),
	"altitude" : 1350,
	"city" : "les Escaldes",
	"country" : "Andorra",
	"id" : NumberInt("384"),
	"latitude" : 42.507287,
	"longitude" : 1.5341377
},
{
	"_id" : ObjectId("583450639e962f47deaa645e"),
	"altitude" : 1571,
	"city" : "Encamp",
	"country" : "Andorra",
	"id" : NumberInt("385"),
	"latitude" : 42.5333333,
	"longitude" : 1.5833333
},
{
	"_id" : ObjectId("583450639e962f47deaa645f"),
	"altitude" : 1045,
	"city" : "Sant Julia de Loria",
	"country" : "Andorra",
	"id" : NumberInt("386"),
	"latitude" : 42.4637237,
	"longitude" : 1.4912868
},
{
	"_id" : ObjectId("583450639e962f47deaa6460"),
	"altitude" : 1257,
	"city" : "la Massana",
	"country" : "Andorra",
	"id" : NumberInt("387"),
	"latitude" : 42.5449867,
	"longitude" : 1.5148258
},
{
	"_id" : ObjectId("583450639e962f47deaa6461"),
	"altitude" : 1655,
	"city" : "Canillo",
	"country" : "Andorra",
	"id" : NumberInt("388"),
	"latitude" : 42.5666667,
	"longitude" : 1.6
},
{
	"_id" : ObjectId("583450639e962f47deaa6462"),
	"altitude" : 2230,
	"city" : "Pas de la Casa",
	"country" : "Andorra",
	"id" : NumberInt("389"),
	"latitude" : 42.5427734,
	"longitude" : 1.7336082
},
{
	"_id" : ObjectId("583450639e962f47deaa6463"),
	"altitude" : 6,
	"city" : "Luanda",
	"country" : "Angola",
	"id" : NumberInt("390"),
	"latitude" : -8.8383333,
	"longitude" : 13.2344446
},
{
	"_id" : ObjectId("583450639e962f47deaa6464"),
	"altitude" : 1723,
	"city" : "Huambo",
	"country" : "Angola",
	"id" : NumberInt("391"),
	"latitude" : -12.7761111,
	"longitude" : 15.7391663
},
{
	"_id" : ObjectId("583450639e962f47deaa6465"),
	"altitude" : 14,
	"city" : "Lobito",
	"country" : "Angola",
	"id" : NumberInt("392"),
	"latitude" : -12.3480556,
	"longitude" : 13.5455561
},
{
	"_id" : ObjectId("583450639e962f47deaa6466"),
	"altitude" : 30,
	"city" : "Benguela",
	"country" : "Angola",
	"id" : NumberInt("393"),
	"latitude" : -12.5783333,
	"longitude" : 13.4072218
},
{
	"_id" : ObjectId("583450639e962f47deaa6467"),
	"altitude" : 1631,
	"city" : "Kuito",
	"country" : "Angola",
	"id" : NumberInt("394"),
	"latitude" : -12.3833333,
	"longitude" : 16.9333324
},
{
	"_id" : ObjectId("583450639e962f47deaa6468"),
	"altitude" : 1719,
	"city" : "Lubango",
	"country" : "Angola",
	"id" : NumberInt("395"),
	"latitude" : -14.9166667,
	"longitude" : 13.5
},
{
	"_id" : ObjectId("583450639e962f47deaa6469"),
	"altitude" : 1156,
	"city" : "Malanje",
	"country" : "Angola",
	"id" : NumberInt("396"),
	"latitude" : -9.5447222,
	"longitude" : 16.3452778
},
{
	"_id" : ObjectId("583450639e962f47deaa646a"),
	"altitude" : 9,
	"city" : "Namibe",
	"country" : "Angola",
	"id" : NumberInt("397"),
	"latitude" : -15.1961111,
	"longitude" : 12.1522226
},
{
	"_id" : ObjectId("583450639e962f47deaa646b"),
	"altitude" : 6,
	"city" : "Soyo",
	"country" : "Angola",
	"id" : NumberInt("398"),
	"latitude" : -6.1333333,
	"longitude" : 12.3666668
},
{
	"_id" : ObjectId("583450639e962f47deaa646c"),
	"altitude" : 1,
	"city" : "Cabinda",
	"country" : "Angola",
	"id" : NumberInt("399"),
	"latitude" : -5.55,
	"longitude" : 12.1999998
},
{
	"_id" : ObjectId("583450639e962f47deaa646d"),
	"altitude" : 859,
	"city" : "Uige",
	"country" : "Angola",
	"id" : NumberInt("400"),
	"latitude" : -7.6166667,
	"longitude" : 15.0500002
},
{
	"_id" : ObjectId("583450639e962f47deaa646e"),
	"altitude" : 1041,
	"city" : "Saurimo",
	"country" : "Angola",
	"id" : NumberInt("401"),
	"latitude" : -9.65,
	"longitude" : 20.3999996
},
{
	"_id" : ObjectId("583450639e962f47deaa646f"),
	"altitude" : -9999,
	"city" : "Sumbe",
	"country" : "Angola",
	"id" : NumberInt("402"),
	"latitude" : -11.2,
	"longitude" : 13.833333
},
{
	"_id" : ObjectId("583450639e962f47deaa6470"),
	"altitude" : 1769,
	"city" : "Caluquembe",
	"country" : "Angola",
	"id" : NumberInt("403"),
	"latitude" : -13.7833333,
	"longitude" : 14.6833334
},
{
	"_id" : ObjectId("583450639e962f47deaa6471"),
	"altitude" : 84,
	"city" : "Caxito",
	"country" : "Angola",
	"id" : NumberInt("404"),
	"latitude" : -8.58,
	"longitude" : 13.6641665
},
{
	"_id" : ObjectId("583450639e962f47deaa6472"),
	"altitude" : 1402,
	"city" : "Longonjo",
	"country" : "Angola",
	"id" : NumberInt("405"),
	"latitude" : -12.9066667,
	"longitude" : 15.2533331
},
{
	"_id" : ObjectId("583450639e962f47deaa6473"),
	"altitude" : 1747,
	"city" : "Caala",
	"country" : "Angola",
	"id" : NumberInt("406"),
	"latitude" : -12.8525,
	"longitude" : 15.5605555
},
{
	"_id" : ObjectId("583450639e962f47deaa6474"),
	"altitude" : 1330,
	"city" : "Luena",
	"country" : "Angola",
	"id" : NumberInt("407"),
	"latitude" : -11.7833333,
	"longitude" : 19.916666
},
{
	"_id" : ObjectId("583450639e962f47deaa6475"),
	"altitude" : 929,
	"city" : "Lucapa",
	"country" : "Angola",
	"id" : NumberInt("408"),
	"latitude" : -8.4166667,
	"longitude" : 20.75
},
{
	"_id" : ObjectId("583450639e962f47deaa6476"),
	"altitude" : 1475,
	"city" : "Camacupa",
	"country" : "Angola",
	"id" : NumberInt("409"),
	"latitude" : -12.0166667,
	"longitude" : 17.4833336
},
{
	"_id" : ObjectId("583450639e962f47deaa6477"),
	"altitude" : 1524,
	"city" : "Catabola",
	"country" : "Angola",
	"id" : NumberInt("410"),
	"latitude" : -12.15,
	"longitude" : 17.2833328
},
{
	"_id" : ObjectId("583450639e962f47deaa6478"),
	"altitude" : 1109,
	"city" : "Luau",
	"country" : "Angola",
	"id" : NumberInt("411"),
	"latitude" : -10.7,
	"longitude" : 22.2333336
},
{
	"_id" : ObjectId("583450639e962f47deaa6479"),
	"altitude" : 31,
	"city" : "Catumbela",
	"country" : "Angola",
	"id" : NumberInt("412"),
	"latitude" : -12.4313889,
	"longitude" : 13.5472221
},
{
	"_id" : ObjectId("583450639e962f47deaa647a"),
	"altitude" : 1195,
	"city" : "Camabatela",
	"country" : "Angola",
	"id" : NumberInt("413"),
	"latitude" : -8.1833333,
	"longitude" : 15.3666668
},
{
	"_id" : ObjectId("583450639e962f47deaa647b"),
	"altitude" : 1476,
	"city" : "Waku Kungo",
	"country" : "Angola",
	"id" : NumberInt("414"),
	"latitude" : -11.35,
	"longitude" : 15.1166668
},
{
	"_id" : ObjectId("583450639e962f47deaa647c"),
	"altitude" : 1724,
	"city" : "Caconda",
	"country" : "Angola",
	"id" : NumberInt("415"),
	"latitude" : -13.7333333,
	"longitude" : 15.0666666
},
{
	"_id" : ObjectId("583450639e962f47deaa647d"),
	"altitude" : 1099,
	"city" : "Ondjiva",
	"country" : "Angola",
	"id" : NumberInt("416"),
	"latitude" : -17.0666667,
	"longitude" : 15.7333336
},
{
	"_id" : ObjectId("583450639e962f47deaa647e"),
	"altitude" : 1375,
	"city" : "Quibala",
	"country" : "Angola",
	"id" : NumberInt("417"),
	"latitude" : -10.7333333,
	"longitude" : 14.9833336
},
{
	"_id" : ObjectId("583450639e962f47deaa647f"),
	"altitude" : 1373,
	"city" : "Chissamba",
	"country" : "Angola",
	"id" : NumberInt("418"),
	"latitude" : -12.1666667,
	"longitude" : 17.333334
},
{
	"_id" : ObjectId("583450639e962f47deaa6480"),
	"altitude" : 1214,
	"city" : "Leua",
	"country" : "Angola",
	"id" : NumberInt("419"),
	"latitude" : -11.65,
	"longitude" : 20.4500008
},
{
	"_id" : ObjectId("583450639e962f47deaa6481"),
	"altitude" : 1121,
	"city" : "Lumeje",
	"country" : "Angola",
	"id" : NumberInt("420"),
	"latitude" : -11.55,
	"longitude" : 20.7833328
},
{
	"_id" : ObjectId("583450639e962f47deaa6482"),
	"altitude" : 1143,
	"city" : "Cazage",
	"country" : "Angola",
	"id" : NumberInt("421"),
	"latitude" : -11.0666667,
	"longitude" : 20.7000008
},
{
	"_id" : ObjectId("583450639e962f47deaa6483"),
	"altitude" : 13,
	"city" : "Buenos Aires",
	"country" : "Argentina",
	"id" : NumberInt("422"),
	"latitude" : -34.5761256,
	"longitude" : -58.4088135
},
{
	"_id" : ObjectId("583450639e962f47deaa6484"),
	"altitude" : 384,
	"city" : "Cordoba",
	"country" : "Argentina",
	"id" : NumberInt("423"),
	"latitude" : -31.4,
	"longitude" : -64.1833344
},
{
	"_id" : ObjectId("583450639e962f47deaa6485"),
	"altitude" : 11,
	"city" : "Rosario",
	"country" : "Argentina",
	"id" : NumberInt("424"),
	"latitude" : -32.9511111,
	"longitude" : -60.6663895
},
{
	"_id" : ObjectId("583450639e962f47deaa6486"),
	"altitude" : 824,
	"city" : "Mendoza",
	"country" : "Argentina",
	"id" : NumberInt("425"),
	"latitude" : -32.8833333,
	"longitude" : -68.8166656
},
{
	"_id" : ObjectId("583450639e962f47deaa6487"),
	"altitude" : 437,
	"city" : "San Miguel de Tucuman",
	"country" : "Argentina",
	"id" : NumberInt("426"),
	"latitude" : -26.8166667,
	"longitude" : -65.2166672
},
{
	"_id" : ObjectId("583450639e962f47deaa6488"),
	"altitude" : 29,
	"city" : "La Plata",
	"country" : "Argentina",
	"id" : NumberInt("427"),
	"latitude" : -34.9313889,
	"longitude" : -57.9488907
},
{
	"_id" : ObjectId("583450639e962f47deaa6489"),
	"altitude" : 39,
	"city" : "Mar del Plata",
	"country" : "Argentina",
	"id" : NumberInt("428"),
	"latitude" : -38,
	"longitude" : -57.5499992
},
{
	"_id" : ObjectId("583450639e962f47deaa648a"),
	"altitude" : 19,
	"city" : "Quilmes",
	"country" : "Argentina",
	"id" : NumberInt("429"),
	"latitude" : -34.7202778,
	"longitude" : -58.2694435
},
{
	"_id" : ObjectId("583450639e962f47deaa648b"),
	"altitude" : 1171,
	"city" : "Salta",
	"country" : "Argentina",
	"id" : NumberInt("430"),
	"latitude" : -24.7833333,
	"longitude" : -65.4166641
},
{
	"_id" : ObjectId("583450639e962f47deaa648c"),
	"altitude" : 20,
	"city" : "Santa Fe",
	"country" : "Argentina",
	"id" : NumberInt("431"),
	"latitude" : -31.6333333,
	"longitude" : -60.7000008
},
{
	"_id" : ObjectId("583450639e962f47deaa648d"),
	"altitude" : 650,
	"city" : "San Juan",
	"country" : "Argentina",
	"id" : NumberInt("432"),
	"latitude" : -31.5375,
	"longitude" : -68.5363922
},
{
	"_id" : ObjectId("583450639e962f47deaa648e"),
	"altitude" : 48,
	"city" : "Resistencia",
	"country" : "Argentina",
	"id" : NumberInt("433"),
	"latitude" : -27.45,
	"longitude" : -58.9833336
},
{
	"_id" : ObjectId("583450639e962f47deaa648f"),
	"altitude" : 180,
	"city" : "Santiago del Estero",
	"country" : "Argentina",
	"id" : NumberInt("434"),
	"latitude" : -27.7833333,
	"longitude" : -64.2666702
},
{
	"_id" : ObjectId("583450639e962f47deaa6490"),
	"altitude" : 52,
	"city" : "Corrientes",
	"country" : "Argentina",
	"id" : NumberInt("435"),
	"latitude" : -27.4666667,
	"longitude" : -58.8333321
},
{
	"_id" : ObjectId("583450639e962f47deaa6491"),
	"altitude" : 54,
	"city" : "Posadas",
	"country" : "Argentina",
	"id" : NumberInt("436"),
	"latitude" : -27.3833333,
	"longitude" : -55.8833351
},
{
	"_id" : ObjectId("583450639e962f47deaa6492"),
	"altitude" : 1206,
	"city" : "San Salvador de Jujuy",
	"country" : "Argentina",
	"id" : NumberInt("437"),
	"latitude" : -24.1833333,
	"longitude" : -65.3000031
},
{
	"_id" : ObjectId("583450639e962f47deaa6493"),
	"altitude" : 21,
	"city" : "Bahia Blanca",
	"country" : "Argentina",
	"id" : NumberInt("438"),
	"latitude" : -38.7166667,
	"longitude" : -62.2833328
},
{
	"_id" : ObjectId("583450639e962f47deaa6494"),
	"altitude" : 68,
	"city" : "Parana",
	"country" : "Argentina",
	"id" : NumberInt("439"),
	"latitude" : -31.7333333,
	"longitude" : -60.5333328
},
{
	"_id" : ObjectId("583450639e962f47deaa6495"),
	"altitude" : 255,
	"city" : "Neuquen",
	"country" : "Argentina",
	"id" : NumberInt("440"),
	"latitude" : -38.95,
	"longitude" : -68.0666656
},
{
	"_id" : ObjectId("583450639e962f47deaa6496"),
	"altitude" : 55,
	"city" : "Formosa",
	"country" : "Argentina",
	"id" : NumberInt("441"),
	"latitude" : -26.1833333,
	"longitude" : -58.1833344
},
{
	"_id" : ObjectId("583450639e962f47deaa6497"),
	"altitude" : 520,
	"city" : "San Fernando del Valle de Catamarca",
	"country" : "Argentina",
	"id" : NumberInt("442"),
	"latitude" : -28.4666667,
	"longitude" : -65.7833328
},
{
	"_id" : ObjectId("583450639e962f47deaa6498"),
	"altitude" : 709,
	"city" : "San Luis",
	"country" : "Argentina",
	"id" : NumberInt("443"),
	"latitude" : -33.3,
	"longitude" : -66.3499985
},
{
	"_id" : ObjectId("583450639e962f47deaa6499"),
	"altitude" : 465,
	"city" : "La Rioja",
	"country" : "Argentina",
	"id" : NumberInt("444"),
	"latitude" : -29.4333333,
	"longitude" : -66.8499985
},
{
	"_id" : ObjectId("583450639e962f47deaa649a"),
	"altitude" : 422,
	"city" : "Rio Cuarto",
	"country" : "Argentina",
	"id" : NumberInt("445"),
	"latitude" : -33.1333333,
	"longitude" : -64.3499985
},
{
	"_id" : ObjectId("583450639e962f47deaa649b"),
	"altitude" : 22,
	"city" : "Concordia",
	"country" : "Argentina",
	"id" : NumberInt("446"),
	"latitude" : -31.4,
	"longitude" : -58.0333328
},
{
	"_id" : ObjectId("583450639e962f47deaa649c"),
	"altitude" : 18,
	"city" : "Comodoro Rivadavia",
	"country" : "Argentina",
	"id" : NumberInt("447"),
	"latitude" : -45.8666667,
	"longitude" : -67.5
},
{
	"_id" : ObjectId("583450639e962f47deaa649d"),
	"altitude" : 6,
	"city" : "San Nicolas de los Arroyos",
	"country" : "Argentina",
	"id" : NumberInt("448"),
	"latitude" : -33.3302778,
	"longitude" : -60.226944
},
{
	"_id" : ObjectId("583450639e962f47deaa649e"),
	"altitude" : 176,
	"city" : "Santa Rosa",
	"country" : "Argentina",
	"id" : NumberInt("449"),
	"latitude" : -36.6166667,
	"longitude" : -64.2833328
},
{
	"_id" : ObjectId("583450639e962f47deaa649f"),
	"altitude" : 691,
	"city" : "San Rafael",
	"country" : "Argentina",
	"id" : NumberInt("450"),
	"latitude" : -34.6,
	"longitude" : -68.3333359
},
{
	"_id" : ObjectId("583450639e962f47deaa64a0"),
	"altitude" : 189,
	"city" : "Tandil",
	"country" : "Argentina",
	"id" : NumberInt("451"),
	"latitude" : -37.3166667,
	"longitude" : -59.1500015
},
{
	"_id" : ObjectId("583450639e962f47deaa64a1"),
	"altitude" : 894,
	"city" : "San Carlos de Bariloche",
	"country" : "Argentina",
	"id" : NumberInt("452"),
	"latitude" : -41.15,
	"longitude" : -71.3000031
},
{
	"_id" : ObjectId("583450639e962f47deaa64a2"),
	"altitude" : 10,
	"city" : "Trelew",
	"country" : "Argentina",
	"id" : NumberInt("453"),
	"latitude" : -43.2489539,
	"longitude" : -65.3050537
},
{
	"_id" : ObjectId("583450639e962f47deaa64a3"),
	"altitude" : 187,
	"city" : "Villa Maria",
	"country" : "Argentina",
	"id" : NumberInt("454"),
	"latitude" : -32.4166667,
	"longitude" : -63.25
},
{
	"_id" : ObjectId("583450639e962f47deaa64a4"),
	"altitude" : 32,
	"city" : "Reconquista",
	"country" : "Argentina",
	"id" : NumberInt("455"),
	"latitude" : -29.15,
	"longitude" : -59.6500015
},
{
	"_id" : ObjectId("583450639e962f47deaa64a5"),
	"altitude" : 27,
	"city" : "Zarate",
	"country" : "Argentina",
	"id" : NumberInt("456"),
	"latitude" : -34.0922222,
	"longitude" : -59.0349998
},
{
	"_id" : ObjectId("583450639e962f47deaa64a6"),
	"altitude" : 91,
	"city" : "Rafaela",
	"country" : "Argentina",
	"id" : NumberInt("457"),
	"latitude" : -31.2666667,
	"longitude" : -61.4833336
},
{
	"_id" : ObjectId("583450639e962f47deaa64a7"),
	"altitude" : 57,
	"city" : "Pergamino",
	"country" : "Argentina",
	"id" : NumberInt("458"),
	"latitude" : -33.8925,
	"longitude" : -60.5724983
},
{
	"_id" : ObjectId("583450639e962f47deaa64a8"),
	"altitude" : 163,
	"city" : "Olavarria",
	"country" : "Argentina",
	"id" : NumberInt("459"),
	"latitude" : -36.9,
	"longitude" : -60.2833328
},
{
	"_id" : ObjectId("583450639e962f47deaa64a9"),
	"altitude" : 13,
	"city" : "Rio Gallegos",
	"country" : "Argentina",
	"id" : NumberInt("460"),
	"latitude" : -51.6333333,
	"longitude" : -69.2166672
},
{
	"_id" : ObjectId("583450639e962f47deaa64aa"),
	"altitude" : 77,
	"city" : "Junin",
	"country" : "Argentina",
	"id" : NumberInt("461"),
	"latitude" : -34.585,
	"longitude" : -60.958889
},
{
	"_id" : ObjectId("583450639e962f47deaa64ab"),
	"altitude" : 656,
	"city" : "San Martin",
	"country" : "Argentina",
	"id" : NumberInt("462"),
	"latitude" : -33.0666667,
	"longitude" : -68.4666672
},
{
	"_id" : ObjectId("583450639e962f47deaa64ac"),
	"altitude" : 87,
	"city" : "Presidencia Roque Saenz Pena",
	"country" : "Argentina",
	"id" : NumberInt("463"),
	"latitude" : -26.7833333,
	"longitude" : -60.4500008
},
{
	"_id" : ObjectId("583450639e962f47deaa64ad"),
	"altitude" : 22,
	"city" : "Lujan",
	"country" : "Argentina",
	"id" : NumberInt("464"),
	"latitude" : -34.5702778,
	"longitude" : -59.1049995
},
{
	"_id" : ObjectId("583450639e962f47deaa64ae"),
	"altitude" : 3,
	"city" : "Campana",
	"country" : "Argentina",
	"id" : NumberInt("465"),
	"latitude" : -34.1769444,
	"longitude" : -58.9208336
},
{
	"_id" : ObjectId("583450639e962f47deaa64af"),
	"altitude" : 31,
	"city" : "Necochea",
	"country" : "Argentina",
	"id" : NumberInt("466"),
	"latitude" : -38.55,
	"longitude" : -58.75
},
{
	"_id" : ObjectId("583450639e962f47deaa64b0"),
	"altitude" : 15,
	"city" : "Gualeguaychu",
	"country" : "Argentina",
	"id" : NumberInt("467"),
	"latitude" : -33.0102778,
	"longitude" : -58.5141678
},
{
	"_id" : ObjectId("583450639e962f47deaa64b1"),
	"altitude" : 357,
	"city" : "San Ramon de la Nueva Oran",
	"country" : "Argentina",
	"id" : NumberInt("468"),
	"latitude" : -23.1322304,
	"longitude" : -64.3259811
},
{
	"_id" : ObjectId("583450639e962f47deaa64b2"),
	"altitude" : 232,
	"city" : "General Roca",
	"country" : "Argentina",
	"id" : NumberInt("469"),
	"latitude" : -39.0333333,
	"longitude" : -67.5833359
},
{
	"_id" : ObjectId("583450639e962f47deaa64b3"),
	"altitude" : 109,
	"city" : "Venado Tuerto",
	"country" : "Argentina",
	"id" : NumberInt("470"),
	"latitude" : -33.7497222,
	"longitude" : -61.9669456
},
{
	"_id" : ObjectId("583450639e962f47deaa64b4"),
	"altitude" : 23,
	"city" : "Goya",
	"country" : "Argentina",
	"id" : NumberInt("471"),
	"latitude" : -29.1333333,
	"longitude" : -59.2666664
},
{
	"_id" : ObjectId("583450639e962f47deaa64b5"),
	"altitude" : 686,
	"city" : "Villa Carlos Paz",
	"country" : "Argentina",
	"id" : NumberInt("472"),
	"latitude" : -31.4,
	"longitude" : -64.5166702
},
{
	"_id" : ObjectId("583450639e962f47deaa64b6"),
	"altitude" : 3,
	"city" : "Concepcion del Uruguay",
	"country" : "Argentina",
	"id" : NumberInt("473"),
	"latitude" : -32.4833333,
	"longitude" : -58.2283325
},
{
	"_id" : ObjectId("583450639e962f47deaa64b7"),
	"altitude" : 18,
	"city" : "Puerto Madryn",
	"country" : "Argentina",
	"id" : NumberInt("474"),
	"latitude" : -42.7666667,
	"longitude" : -65.0500031
},
{
	"_id" : ObjectId("583450639e962f47deaa64b8"),
	"altitude" : 468,
	"city" : "Tartagal",
	"country" : "Argentina",
	"id" : NumberInt("475"),
	"latitude" : -22.5333333,
	"longitude" : -63.8166656
},
{
	"_id" : ObjectId("583450639e962f47deaa64b9"),
	"altitude" : 123,
	"city" : "San Francisco",
	"country" : "Argentina",
	"id" : NumberInt("476"),
	"latitude" : -31.4333333,
	"longitude" : -62.0833321
},
{
	"_id" : ObjectId("583450639e962f47deaa64ba"),
	"altitude" : 563,
	"city" : "San Pedro",
	"country" : "Argentina",
	"id" : NumberInt("477"),
	"latitude" : -24.2333333,
	"longitude" : -64.8666687
},
{
	"_id" : ObjectId("583450639e962f47deaa64bb"),
	"altitude" : -9999,
	"city" : "Ushuaia",
	"country" : "Argentina",
	"id" : NumberInt("478"),
	"latitude" : -54.8,
	"longitude" : -68.3000031
},
{
	"_id" : ObjectId("583450639e962f47deaa64bc"),
	"altitude" : 3,
	"city" : "Punta Alta",
	"country" : "Argentina",
	"id" : NumberInt("479"),
	"latitude" : -38.8833333,
	"longitude" : -62.0833321
},
{
	"_id" : ObjectId("583450639e962f47deaa64bd"),
	"altitude" : 103,
	"city" : "General Pico",
	"country" : "Argentina",
	"id" : NumberInt("480"),
	"latitude" : -35.6666667,
	"longitude" : -63.7333336
},
{
	"_id" : ObjectId("583450639e962f47deaa64be"),
	"altitude" : 21,
	"city" : "Colegiales",
	"country" : "Argentina",
	"id" : NumberInt("481"),
	"latitude" : -34.5833333,
	"longitude" : -58.4500008
},
{
	"_id" : ObjectId("583450639e962f47deaa64bf"),
	"altitude" : 302,
	"city" : "Obera",
	"country" : "Argentina",
	"id" : NumberInt("482"),
	"latitude" : -27.4833333,
	"longitude" : -55.1333351
},
{
	"_id" : ObjectId("583450639e962f47deaa64c0"),
	"altitude" : 34,
	"city" : "Chivilcoy",
	"country" : "Argentina",
	"id" : NumberInt("483"),
	"latitude" : -34.9083333,
	"longitude" : -60.0305557
},
{
	"_id" : ObjectId("583450639e962f47deaa64c1"),
	"altitude" : 137,
	"city" : "Azul",
	"country" : "Argentina",
	"id" : NumberInt("484"),
	"latitude" : -36.7833333,
	"longitude" : -59.8499985
},
{
	"_id" : ObjectId("583450639e962f47deaa64c2"),
	"altitude" : 365,
	"city" : "Rio Tercero",
	"country" : "Argentina",
	"id" : NumberInt("485"),
	"latitude" : -32.1833333,
	"longitude" : -64.0999985
},
{
	"_id" : ObjectId("583450639e962f47deaa64c3"),
	"altitude" : 40,
	"city" : "Mercedes",
	"country" : "Argentina",
	"id" : NumberInt("486"),
	"latitude" : -34.6544444,
	"longitude" : -59.4344444
},
{
	"_id" : ObjectId("583450639e962f47deaa64c4"),
	"altitude" : 473,
	"city" : "Libertador General San Martin",
	"country" : "Argentina",
	"id" : NumberInt("487"),
	"latitude" : -23.8,
	"longitude" : -64.8000031
},
{
	"_id" : ObjectId("583450639e962f47deaa64c5"),
	"altitude" : 12,
	"city" : "Viedma",
	"country" : "Argentina",
	"id" : NumberInt("488"),
	"latitude" : -40.8,
	"longitude" : -63
},
{
	"_id" : ObjectId("583450639e962f47deaa64c6"),
	"altitude" : 70,
	"city" : "San Lorenzo",
	"country" : "Argentina",
	"id" : NumberInt("489"),
	"latitude" : -28.1333333,
	"longitude" : -58.7666664
},
{
	"_id" : ObjectId("583450639e962f47deaa64c7"),
	"altitude" : 612,
	"city" : "Cutral-Co",
	"country" : "Argentina",
	"id" : NumberInt("490"),
	"latitude" : -38.9333333,
	"longitude" : -69.2333298
},
{
	"_id" : ObjectId("583450639e962f47deaa64c8"),
	"altitude" : 100,
	"city" : "Tres Arroyos",
	"country" : "Argentina",
	"id" : NumberInt("491"),
	"latitude" : -38.3833333,
	"longitude" : -60.2833328
},
{
	"_id" : ObjectId("583450639e962f47deaa64c9"),
	"altitude" : 50,
	"city" : "Villa Constitucion",
	"country" : "Argentina",
	"id" : NumberInt("492"),
	"latitude" : -33.2333333,
	"longitude" : -60.3333321
},
{
	"_id" : ObjectId("583450639e962f47deaa64ca"),
	"altitude" : 516,
	"city" : "Alta Gracia",
	"country" : "Argentina",
	"id" : NumberInt("493"),
	"latitude" : -31.6666667,
	"longitude" : -64.4333344
},
{
	"_id" : ObjectId("583450639e962f47deaa64cb"),
	"altitude" : 70,
	"city" : "Canada de Gomez",
	"country" : "Argentina",
	"id" : NumberInt("494"),
	"latitude" : -32.8169444,
	"longitude" : -61.4008331
},
{
	"_id" : ObjectId("583450639e962f47deaa64cc"),
	"altitude" : 123,
	"city" : "Bell Ville",
	"country" : "Argentina",
	"id" : NumberInt("495"),
	"latitude" : -32.6166667,
	"longitude" : -62.7000008
},
{
	"_id" : ObjectId("583450639e962f47deaa64cd"),
	"altitude" : 83,
	"city" : "Nueve de Julio",
	"country" : "Argentina",
	"id" : NumberInt("496"),
	"latitude" : -35.4541667,
	"longitude" : -60.8913879
},
{
	"_id" : ObjectId("583450639e962f47deaa64ce"),
	"altitude" : 66,
	"city" : "Chacabuco",
	"country" : "Argentina",
	"id" : NumberInt("497"),
	"latitude" : -34.6416667,
	"longitude" : -60.4738884
},
{
	"_id" : ObjectId("583450639e962f47deaa64cf"),
	"altitude" : 21,
	"city" : "Villa Santa Rita",
	"country" : "Argentina",
	"id" : NumberInt("498"),
	"latitude" : -34.6147735,
	"longitude" : -58.4797096
},
{
	"_id" : ObjectId("583450639e962f47deaa64d0"),
	"altitude" : 15,
	"city" : "Gualeguay",
	"country" : "Argentina",
	"id" : NumberInt("499"),
	"latitude" : -33.1444444,
	"longitude" : -59.3291664
},
{
	"_id" : ObjectId("583450639e962f47deaa64d1"),
	"altitude" : 183,
	"city" : "Puerto Iguazu",
	"country" : "Argentina",
	"id" : NumberInt("500"),
	"latitude" : -25.5991157,
	"longitude" : -54.573555
},
{
	"_id" : ObjectId("583450639e962f47deaa64d2"),
	"altitude" : 85,
	"city" : "Mercedes",
	"country" : "Argentina",
	"id" : NumberInt("501"),
	"latitude" : -29.2,
	"longitude" : -58.0833321
},
{
	"_id" : ObjectId("583450639e962f47deaa64d3"),
	"altitude" : 228,
	"city" : "Coronel Suarez",
	"country" : "Argentina",
	"id" : NumberInt("502"),
	"latitude" : -37.4666667,
	"longitude" : -61.9166679
},
{
	"_id" : ObjectId("583450639e962f47deaa64d4"),
	"altitude" : 4,
	"city" : "Rawson",
	"country" : "Argentina",
	"id" : NumberInt("503"),
	"latitude" : -43.3,
	"longitude" : -65.0999985
},
{
	"_id" : ObjectId("583450639e962f47deaa64d5"),
	"altitude" : 9,
	"city" : "Dolores",
	"country" : "Argentina",
	"id" : NumberInt("504"),
	"latitude" : -36.3333333,
	"longitude" : -57.6666679
},
{
	"_id" : ObjectId("583450639e962f47deaa64d6"),
	"altitude" : 36,
	"city" : "Victoria",
	"country" : "Argentina",
	"id" : NumberInt("505"),
	"latitude" : -32.6184122,
	"longitude" : -60.1547813
},
{
	"_id" : ObjectId("583450639e962f47deaa64d7"),
	"altitude" : 78,
	"city" : "Lincoln",
	"country" : "Argentina",
	"id" : NumberInt("506"),
	"latitude" : -34.865,
	"longitude" : -61.5319443
},
{
	"_id" : ObjectId("583450639e962f47deaa64d8"),
	"altitude" : 59,
	"city" : "Veinticinco de Mayo",
	"country" : "Argentina",
	"id" : NumberInt("507"),
	"latitude" : -35.4280556,
	"longitude" : -60.1741676
},
{
	"_id" : ObjectId("583450639e962f47deaa64d9"),
	"altitude" : 63,
	"city" : "Clorinda",
	"country" : "Argentina",
	"id" : NumberInt("508"),
	"latitude" : -25.2833333,
	"longitude" : -57.7166672
},
{
	"_id" : ObjectId("583450639e962f47deaa64da"),
	"altitude" : 1590,
	"city" : "Cafayate",
	"country" : "Argentina",
	"id" : NumberInt("509"),
	"latitude" : -26.0833333,
	"longitude" : -65.9666672
},
{
	"_id" : ObjectId("583450639e962f47deaa64db"),
	"altitude" : 200,
	"city" : "El Calafate",
	"country" : "Argentina",
	"id" : NumberInt("510"),
	"latitude" : -50.3407497,
	"longitude" : -72.2768173
},
{
	"_id" : ObjectId("583450639e962f47deaa64dc"),
	"altitude" : 58,
	"city" : "Larroque",
	"country" : "Argentina",
	"id" : NumberInt("511"),
	"latitude" : -33.0333333,
	"longitude" : -59.0166664
},
{
	"_id" : ObjectId("583450639e962f47deaa64dd"),
	"altitude" : 1665,
	"city" : "Campo Quijano",
	"country" : "Argentina",
	"id" : NumberInt("512"),
	"latitude" : -24.9166667,
	"longitude" : -65.6500015
},
{
	"_id" : ObjectId("583450639e962f47deaa64de"),
	"altitude" : 3932,
	"city" : "San Antonio de los Cobres",
	"country" : "Argentina",
	"id" : NumberInt("513"),
	"latitude" : -24.1833333,
	"longitude" : -66.3499985
},
{
	"_id" : ObjectId("583450639e962f47deaa64df"),
	"altitude" : 3346,
	"city" : "Santa Rosa de Tastil",
	"country" : "Argentina",
	"id" : NumberInt("514"),
	"latitude" : -24.4333333,
	"longitude" : -65.9499969
},
{
	"_id" : ObjectId("583450639e962f47deaa64e0"),
	"altitude" : 2222,
	"city" : "Purmamarca",
	"country" : "Argentina",
	"id" : NumberInt("515"),
	"latitude" : -23.7333333,
	"longitude" : -65.4833298
},
{
	"_id" : ObjectId("583450639e962f47deaa64e1"),
	"altitude" : 1021,
	"city" : "Villa Catedral",
	"country" : "Argentina",
	"id" : NumberInt("516"),
	"latitude" : -41.1673478,
	"longitude" : -71.4387741
},
{
	"_id" : ObjectId("583450639e962f47deaa64e2"),
	"altitude" : 1002,
	"city" : "Yerevan",
	"country" : "Armenia",
	"id" : NumberInt("517"),
	"latitude" : 40.1811111,
	"longitude" : 44.5136108
},
{
	"_id" : ObjectId("583450639e962f47deaa64e3"),
	"altitude" : 1545,
	"city" : "Gyumri",
	"country" : "Armenia",
	"id" : NumberInt("518"),
	"latitude" : 40.7894444,
	"longitude" : 43.8474998
},
{
	"_id" : ObjectId("583450639e962f47deaa64e4"),
	"altitude" : 1320,
	"city" : "Vanadzor",
	"country" : "Armenia",
	"id" : NumberInt("519"),
	"latitude" : 40.8127778,
	"longitude" : 44.4883347
},
{
	"_id" : ObjectId("583450639e962f47deaa64e5"),
	"altitude" : 879,
	"city" : "Ejmiatsin",
	"country" : "Armenia",
	"id" : NumberInt("520"),
	"latitude" : 40.1727778,
	"longitude" : 44.2924995
},
{
	"_id" : ObjectId("583450639e962f47deaa64e6"),
	"altitude" : 1735,
	"city" : "Hrazdan",
	"country" : "Armenia",
	"id" : NumberInt("521"),
	"latitude" : 40.5016667,
	"longitude" : 44.7547226
},
{
	"_id" : ObjectId("583450639e962f47deaa64e7"),
	"altitude" : 1408,
	"city" : "Abovyan",
	"country" : "Armenia",
	"id" : NumberInt("522"),
	"latitude" : 40.2691667,
	"longitude" : 44.6244431
},
{
	"_id" : ObjectId("583450639e962f47deaa64e8"),
	"altitude" : 822,
	"city" : "Kapan",
	"country" : "Armenia",
	"id" : NumberInt("523"),
	"latitude" : 39.2011111,
	"longitude" : 46.4150009
},
{
	"_id" : ObjectId("583450639e962f47deaa64e9"),
	"altitude" : 813,
	"city" : "Ararat",
	"country" : "Armenia",
	"id" : NumberInt("524"),
	"latitude" : 39.8302778,
	"longitude" : 44.7024994
},
{
	"_id" : ObjectId("583450639e962f47deaa64ea"),
	"altitude" : 878,
	"city" : "Armavir",
	"country" : "Armenia",
	"id" : NumberInt("525"),
	"latitude" : 40.1522222,
	"longitude" : 44.0308342
},
{
	"_id" : ObjectId("583450639e962f47deaa64eb"),
	"altitude" : 1982,
	"city" : "Gavarr",
	"country" : "Armenia",
	"id" : NumberInt("526"),
	"latitude" : 40.3588889,
	"longitude" : 45.126667
},
{
	"_id" : ObjectId("583450639e962f47deaa64ec"),
	"altitude" : 837,
	"city" : "Artashat",
	"country" : "Armenia",
	"id" : NumberInt("527"),
	"latitude" : 39.9538889,
	"longitude" : 44.5505562
},
{
	"_id" : ObjectId("583450639e962f47deaa64ed"),
	"altitude" : 1363,
	"city" : "Goris",
	"country" : "Armenia",
	"id" : NumberInt("528"),
	"latitude" : 39.5077778,
	"longitude" : 46.3386116
},
{
	"_id" : ObjectId("583450639e962f47deaa64ee"),
	"altitude" : 843,
	"city" : "Masis",
	"country" : "Armenia",
	"id" : NumberInt("529"),
	"latitude" : 40.0672222,
	"longitude" : 44.4361115
},
{
	"_id" : ObjectId("583450639e962f47deaa64ef"),
	"altitude" : 1190,
	"city" : "Ashtarak",
	"country" : "Armenia",
	"id" : NumberInt("530"),
	"latitude" : 40.3016667,
	"longitude" : 44.3591652
},
{
	"_id" : ObjectId("583450639e962f47deaa64f0"),
	"altitude" : 1905,
	"city" : "Sevan",
	"country" : "Armenia",
	"id" : NumberInt("531"),
	"latitude" : 40.555,
	"longitude" : 44.9536095
},
{
	"_id" : ObjectId("583450639e962f47deaa64f1"),
	"altitude" : 1543,
	"city" : "Spitak",
	"country" : "Armenia",
	"id" : NumberInt("532"),
	"latitude" : 40.8372222,
	"longitude" : 44.2675018
},
{
	"_id" : ObjectId("583450639e962f47deaa64f2"),
	"altitude" : 755,
	"city" : "Ijevan",
	"country" : "Armenia",
	"id" : NumberInt("533"),
	"latitude" : 40.8755556,
	"longitude" : 45.1491661
},
{
	"_id" : ObjectId("583450639e962f47deaa64f3"),
	"altitude" : 1345,
	"city" : "Dilijan",
	"country" : "Armenia",
	"id" : NumberInt("534"),
	"latitude" : 40.7408333,
	"longitude" : 44.8630562
},
{
	"_id" : ObjectId("583450639e962f47deaa64f4"),
	"altitude" : 1296,
	"city" : "Alaverdi",
	"country" : "Armenia",
	"id" : NumberInt("535"),
	"latitude" : 41.1305556,
	"longitude" : 44.6519432
},
{
	"_id" : ObjectId("583450639e962f47deaa64f5"),
	"altitude" : 919,
	"city" : "Vedi",
	"country" : "Armenia",
	"id" : NumberInt("536"),
	"latitude" : 39.9105556,
	"longitude" : 44.7277794
},
{
	"_id" : ObjectId("583450639e962f47deaa64f6"),
	"altitude" : 1944,
	"city" : "Vardenis",
	"country" : "Armenia",
	"id" : NumberInt("537"),
	"latitude" : 40.1805556,
	"longitude" : 45.7283325
},
{
	"_id" : ObjectId("583450639e962f47deaa64f7"),
	"altitude" : 1915,
	"city" : "Martuni",
	"country" : "Armenia",
	"id" : NumberInt("538"),
	"latitude" : 40.1447222,
	"longitude" : 45.3063889
},
{
	"_id" : ObjectId("583450639e962f47deaa64f8"),
	"altitude" : 1335,
	"city" : "Yeghvard",
	"country" : "Armenia",
	"id" : NumberInt("539"),
	"latitude" : 40.3216667,
	"longitude" : 44.4813881
},
{
	"_id" : ObjectId("583450639e962f47deaa64f9"),
	"altitude" : 842,
	"city" : "Metsamor",
	"country" : "Armenia",
	"id" : NumberInt("540"),
	"latitude" : 40.0713889,
	"longitude" : 44.2891655
},
{
	"_id" : ObjectId("583450639e962f47deaa64fa"),
	"altitude" : 978,
	"city" : "Berd",
	"country" : "Armenia",
	"id" : NumberInt("541"),
	"latitude" : 40.8808333,
	"longitude" : 45.3916664
},
{
	"_id" : ObjectId("583450639e962f47deaa64fb"),
	"altitude" : 2031,
	"city" : "Vardenik",
	"country" : "Armenia",
	"id" : NumberInt("542"),
	"latitude" : 40.135,
	"longitude" : 45.4363899
},
{
	"_id" : ObjectId("583450639e962f47deaa64fc"),
	"altitude" : 1544,
	"city" : "Akhuryan",
	"country" : "Armenia",
	"id" : NumberInt("543"),
	"latitude" : 40.7813889,
	"longitude" : 43.896389
},
{
	"_id" : ObjectId("583450639e962f47deaa64fd"),
	"altitude" : 1522,
	"city" : "Tashir",
	"country" : "Armenia",
	"id" : NumberInt("544"),
	"latitude" : 41.1244444,
	"longitude" : 44.2819443
},
{
	"_id" : ObjectId("583450639e962f47deaa64fe"),
	"altitude" : 1411,
	"city" : "Byureghavan",
	"country" : "Armenia",
	"id" : NumberInt("545"),
	"latitude" : 40.3147222,
	"longitude" : 44.5936127
},
{
	"_id" : ObjectId("583450639e962f47deaa64ff"),
	"altitude" : 1410,
	"city" : "Garrni",
	"country" : "Armenia",
	"id" : NumberInt("546"),
	"latitude" : 40.1194444,
	"longitude" : 44.7230568
},
{
	"_id" : ObjectId("583450639e962f47deaa6500"),
	"altitude" : 1972,
	"city" : "Sarukhan",
	"country" : "Armenia",
	"id" : NumberInt("547"),
	"latitude" : 40.2891667,
	"longitude" : 45.1341667
},
{
	"_id" : ObjectId("583450639e962f47deaa6501"),
	"altitude" : 1852,
	"city" : "Chambarak",
	"country" : "Armenia",
	"id" : NumberInt("548"),
	"latitude" : 40.5952778,
	"longitude" : 45.3474998
},
{
	"_id" : ObjectId("583450639e962f47deaa6502"),
	"altitude" : 1899,
	"city" : "Aparan",
	"country" : "Armenia",
	"id" : NumberInt("549"),
	"latitude" : 40.5961111,
	"longitude" : 44.353611
},
{
	"_id" : ObjectId("583450639e962f47deaa6503"),
	"altitude" : 1935,
	"city" : "Noratus",
	"country" : "Armenia",
	"id" : NumberInt("550"),
	"latitude" : 40.3822222,
	"longitude" : 45.1783333
},
{
	"_id" : ObjectId("583450639e962f47deaa6504"),
	"altitude" : 869,
	"city" : "Hoktember",
	"country" : "Armenia",
	"id" : NumberInt("551"),
	"latitude" : 40.1361111,
	"longitude" : 44.0138893
},
{
	"_id" : ObjectId("583450639e962f47deaa6505"),
	"altitude" : 857,
	"city" : "Noyemberyan",
	"country" : "Armenia",
	"id" : NumberInt("552"),
	"latitude" : 41.1725,
	"longitude" : 44.9936104
},
{
	"_id" : ObjectId("583450639e962f47deaa6506"),
	"altitude" : 2167,
	"city" : "Karanlukh",
	"country" : "Armenia",
	"id" : NumberInt("553"),
	"latitude" : 40.1044444,
	"longitude" : 45.2897224
},
{
	"_id" : ObjectId("583450639e962f47deaa6507"),
	"altitude" : 856,
	"city" : "Mrgashat",
	"country" : "Armenia",
	"id" : NumberInt("554"),
	"latitude" : 40.1297222,
	"longitude" : 44.0705566
},
{
	"_id" : ObjectId("583450639e962f47deaa6508"),
	"altitude" : 1717,
	"city" : "Maralik",
	"country" : "Armenia",
	"id" : NumberInt("555"),
	"latitude" : 40.5722222,
	"longitude" : 43.8669434
},
{
	"_id" : ObjectId("583450639e962f47deaa6509"),
	"altitude" : 1300,
	"city" : "Nor Geghi",
	"country" : "Armenia",
	"id" : NumberInt("556"),
	"latitude" : 40.3211111,
	"longitude" : 44.5797234
},
{
	"_id" : ObjectId("583450639e962f47deaa650a"),
	"altitude" : 1011,
	"city" : "Oshakan",
	"country" : "Armenia",
	"id" : NumberInt("557"),
	"latitude" : 40.2705556,
	"longitude" : 44.269165
},
{
	"_id" : ObjectId("583450639e962f47deaa650b"),
	"altitude" : 1560,
	"city" : "Metsavan",
	"country" : "Armenia",
	"id" : NumberInt("558"),
	"latitude" : 41.2016667,
	"longitude" : 44.2288895
},
{
	"_id" : ObjectId("583450639e962f47deaa650c"),
	"altitude" : 892,
	"city" : "Agarak",
	"country" : "Armenia",
	"id" : NumberInt("559"),
	"latitude" : 39.2038889,
	"longitude" : 46.5472221
},
{
	"_id" : ObjectId("583450639e962f47deaa650d"),
	"altitude" : 2135,
	"city" : "Jermuk",
	"country" : "Armenia",
	"id" : NumberInt("560"),
	"latitude" : 39.8416667,
	"longitude" : 45.6722221
},
{
	"_id" : ObjectId("583450639e962f47deaa650e"),
	"altitude" : 684,
	"city" : "Meghri",
	"country" : "Armenia",
	"id" : NumberInt("561"),
	"latitude" : 38.9022222,
	"longitude" : 46.2383347
},
{
	"_id" : ObjectId("583450639e962f47deaa650f"),
	"altitude" : 1100,
	"city" : "Odzun",
	"country" : "Armenia",
	"id" : NumberInt("562"),
	"latitude" : 41.0538889,
	"longitude" : 44.6113892
},
{
	"_id" : ObjectId("583450639e962f47deaa6510"),
	"altitude" : 1852,
	"city" : "Zovuni",
	"country" : "Armenia",
	"id" : NumberInt("563"),
	"latitude" : 40.5108333,
	"longitude" : 44.4288902
},
{
	"_id" : ObjectId("583450639e962f47deaa6511"),
	"altitude" : 1483,
	"city" : "Azatan",
	"country" : "Armenia",
	"id" : NumberInt("564"),
	"latitude" : 40.7238889,
	"longitude" : 43.8205566
},
{
	"_id" : ObjectId("583450639e962f47deaa6512"),
	"altitude" : 1185,
	"city" : "Prroshyan",
	"country" : "Armenia",
	"id" : NumberInt("565"),
	"latitude" : 40.2480556,
	"longitude" : 44.4150009
},
{
	"_id" : ObjectId("583450639e962f47deaa6513"),
	"altitude" : 1811,
	"city" : "Kasakh",
	"country" : "Armenia",
	"id" : NumberInt("566"),
	"latitude" : 40.5333333,
	"longitude" : 44.4166679
},
{
	"_id" : ObjectId("583450639e962f47deaa6514"),
	"altitude" : 1963,
	"city" : "Yeranos",
	"country" : "Armenia",
	"id" : NumberInt("567"),
	"latitude" : 40.2080556,
	"longitude" : 45.1861115
},
{
	"_id" : ObjectId("583450639e962f47deaa6515"),
	"altitude" : 840,
	"city" : "Avshar",
	"country" : "Armenia",
	"id" : NumberInt("568"),
	"latitude" : 39.8405556,
	"longitude" : 44.6836128
},
{
	"_id" : ObjectId("583450639e962f47deaa6516"),
	"altitude" : 1893,
	"city" : "Lchashen",
	"country" : "Armenia",
	"id" : NumberInt("569"),
	"latitude" : 40.5202778,
	"longitude" : 44.9308319
},
{
	"_id" : ObjectId("583450639e962f47deaa6517"),
	"altitude" : 1187,
	"city" : "Malishka",
	"country" : "Armenia",
	"id" : NumberInt("570"),
	"latitude" : 39.7369444,
	"longitude" : 45.3875008
},
{
	"_id" : ObjectId("583450639e962f47deaa6518"),
	"altitude" : 1968,
	"city" : "Verin Getashen",
	"country" : "Armenia",
	"id" : NumberInt("571"),
	"latitude" : 40.1327778,
	"longitude" : 45.2486115
},
{
	"_id" : ObjectId("583450639e962f47deaa6519"),
	"altitude" : 870,
	"city" : "Nalbandyan",
	"country" : "Armenia",
	"id" : NumberInt("572"),
	"latitude" : 40.0677778,
	"longitude" : 43.9855537
},
{
	"_id" : ObjectId("583450639e962f47deaa651a"),
	"altitude" : 1916,
	"city" : "Tsovinar",
	"country" : "Armenia",
	"id" : NumberInt("573"),
	"latitude" : 40.1608333,
	"longitude" : 45.4538879
},
{
	"_id" : ObjectId("583450639e962f47deaa651b"),
	"altitude" : 921,
	"city" : "Verin Artashat",
	"country" : "Armenia",
	"id" : NumberInt("574"),
	"latitude" : 40.0005556,
	"longitude" : 44.5849991
},
{
	"_id" : ObjectId("583450639e962f47deaa651c"),
	"altitude" : 835,
	"city" : "Shahumyan",
	"country" : "Armenia",
	"id" : NumberInt("575"),
	"latitude" : 39.9308333,
	"longitude" : 44.5783348
},
{
	"_id" : ObjectId("583450639e962f47deaa651d"),
	"altitude" : 1462,
	"city" : "Byurakan",
	"country" : "Armenia",
	"id" : NumberInt("576"),
	"latitude" : 40.3413889,
	"longitude" : 44.273613
},
{
	"_id" : ObjectId("583450639e962f47deaa651e"),
	"altitude" : 1981,
	"city" : "Tsovagyugh",
	"country" : "Armenia",
	"id" : NumberInt("577"),
	"latitude" : 40.6330556,
	"longitude" : 44.9522209
},
{
	"_id" : ObjectId("583450639e962f47deaa651f"),
	"altitude" : 1985,
	"city" : "Gandzak",
	"country" : "Armenia",
	"id" : NumberInt("578"),
	"latitude" : 40.3147222,
	"longitude" : 45.1113892
},
{
	"_id" : ObjectId("583450639e962f47deaa6520"),
	"altitude" : 872,
	"city" : "Arshaluys",
	"country" : "Armenia",
	"id" : NumberInt("579"),
	"latitude" : 40.1688889,
	"longitude" : 44.2141685
},
{
	"_id" : ObjectId("583450639e962f47deaa6521"),
	"altitude" : 1035,
	"city" : "Voskevaz",
	"country" : "Armenia",
	"id" : NumberInt("580"),
	"latitude" : 40.2797222,
	"longitude" : 44.2949982
},
{
	"_id" : ObjectId("583450639e962f47deaa6522"),
	"altitude" : 848,
	"city" : "Aygavan",
	"country" : "Armenia",
	"id" : NumberInt("581"),
	"latitude" : 39.8647222,
	"longitude" : 44.6702766
},
{
	"_id" : ObjectId("583450639e962f47deaa6523"),
	"altitude" : 2096,
	"city" : "Dzoragyugh",
	"country" : "Armenia",
	"id" : NumberInt("582"),
	"latitude" : 40.1752778,
	"longitude" : 45.1749992
},
{
	"_id" : ObjectId("583450639e962f47deaa6524"),
	"altitude" : 1298,
	"city" : "Karbi",
	"country" : "Armenia",
	"id" : NumberInt("583"),
	"latitude" : 40.3338889,
	"longitude" : 44.3777771
},
{
	"_id" : ObjectId("583450639e962f47deaa6525"),
	"altitude" : 2042,
	"city" : "Astghadzor",
	"country" : "Armenia",
	"id" : NumberInt("584"),
	"latitude" : 40.1238889,
	"longitude" : 45.3566666
},
{
	"_id" : ObjectId("583450639e962f47deaa6526"),
	"altitude" : 835,
	"city" : "Hovtashat",
	"country" : "Armenia",
	"id" : NumberInt("585"),
	"latitude" : 40.1019444,
	"longitude" : 44.3427773
},
{
	"_id" : ObjectId("583450639e962f47deaa6527"),
	"altitude" : 913,
	"city" : "Myasnikyan",
	"country" : "Armenia",
	"id" : NumberInt("586"),
	"latitude" : 40.1775,
	"longitude" : 43.9063873
},
{
	"_id" : ObjectId("583450639e962f47deaa6528"),
	"altitude" : 1075,
	"city" : "Haghartsin",
	"country" : "Armenia",
	"id" : NumberInt("587"),
	"latitude" : 40.7780556,
	"longitude" : 44.9625015
},
{
	"_id" : ObjectId("583450639e962f47deaa6529"),
	"altitude" : 839,
	"city" : "Gay",
	"country" : "Armenia",
	"id" : NumberInt("588"),
	"latitude" : 40.0838889,
	"longitude" : 44.3055573
},
{
	"_id" : ObjectId("583450639e962f47deaa652a"),
	"altitude" : 1833,
	"city" : "Margahovit",
	"country" : "Armenia",
	"id" : NumberInt("589"),
	"latitude" : 40.7380556,
	"longitude" : 44.6875
},
{
	"_id" : ObjectId("583450639e962f47deaa652b"),
	"altitude" : 1950,
	"city" : "Vaghashen",
	"country" : "Armenia",
	"id" : NumberInt("590"),
	"latitude" : 40.1377778,
	"longitude" : 45.3291664
},
{
	"_id" : ObjectId("583450639e962f47deaa652c"),
	"altitude" : 1443,
	"city" : "Aramus",
	"country" : "Armenia",
	"id" : NumberInt("591"),
	"latitude" : 40.2511111,
	"longitude" : 44.6630554
},
{
	"_id" : ObjectId("583450639e962f47deaa652d"),
	"altitude" : 1167,
	"city" : "Artsvaberd",
	"country" : "Armenia",
	"id" : NumberInt("592"),
	"latitude" : 40.8336111,
	"longitude" : 45.4711113
},
{
	"_id" : ObjectId("583450639e962f47deaa652e"),
	"altitude" : 879,
	"city" : "Aygezard",
	"country" : "Armenia",
	"id" : NumberInt("593"),
	"latitude" : 39.9458333,
	"longitude" : 44.6088905
},
{
	"_id" : ObjectId("583450639e962f47deaa652f"),
	"altitude" : 671,
	"city" : "Berdavan",
	"country" : "Armenia",
	"id" : NumberInt("594"),
	"latitude" : 41.2027778,
	"longitude" : 45.003334
},
{
	"_id" : ObjectId("583450639e962f47deaa6530"),
	"altitude" : 870,
	"city" : "Bambakashat",
	"country" : "Armenia",
	"id" : NumberInt("595"),
	"latitude" : 40.1144444,
	"longitude" : 44.0122223
},
{
	"_id" : ObjectId("583450639e962f47deaa6531"),
	"altitude" : 1225,
	"city" : "Arteni",
	"country" : "Armenia",
	"id" : NumberInt("596"),
	"latitude" : 40.2983333,
	"longitude" : 43.7541656
},
{
	"_id" : ObjectId("583450639e962f47deaa6532"),
	"altitude" : 1020,
	"city" : "Dalarik",
	"country" : "Armenia",
	"id" : NumberInt("597"),
	"latitude" : 40.2183333,
	"longitude" : 43.8602791
},
{
	"_id" : ObjectId("583450639e962f47deaa6533"),
	"altitude" : 1737,
	"city" : "Jrashen",
	"country" : "Armenia",
	"id" : NumberInt("598"),
	"latitude" : 40.7875,
	"longitude" : 44.1972237
},
{
	"_id" : ObjectId("583450639e962f47deaa6534"),
	"altitude" : 935,
	"city" : "Norashen",
	"country" : "Armenia",
	"id" : NumberInt("599"),
	"latitude" : 40.0041667,
	"longitude" : 44.5947227
},
{
	"_id" : ObjectId("583450639e962f47deaa6535"),
	"altitude" : 479,
	"city" : "Bagratashen",
	"country" : "Armenia",
	"id" : NumberInt("600"),
	"latitude" : 41.2458333,
	"longitude" : 44.8211098
},
{
	"_id" : ObjectId("583450639e962f47deaa6536"),
	"altitude" : 877,
	"city" : "Janfida",
	"country" : "Armenia",
	"id" : NumberInt("601"),
	"latitude" : 40.0455556,
	"longitude" : 44.0208321
},
{
	"_id" : ObjectId("583450639e962f47deaa6537"),
	"altitude" : 1412,
	"city" : "Balahovit",
	"country" : "Armenia",
	"id" : NumberInt("602"),
	"latitude" : 40.2536111,
	"longitude" : 44.6038895
},
{
	"_id" : ObjectId("583450639e962f47deaa6538"),
	"altitude" : 853,
	"city" : "Marmarashen",
	"country" : "Armenia",
	"id" : NumberInt("603"),
	"latitude" : 40.0575,
	"longitude" : 44.4711113
},
{
	"_id" : ObjectId("583450639e962f47deaa6539"),
	"altitude" : 849,
	"city" : "Vostan",
	"country" : "Armenia",
	"id" : NumberInt("604"),
	"latitude" : 39.9588889,
	"longitude" : 44.559166
},
{
	"_id" : ObjectId("583450639e962f47deaa653a"),
	"altitude" : 939,
	"city" : "Aghavnatun",
	"country" : "Armenia",
	"id" : NumberInt("605"),
	"latitude" : 40.2336111,
	"longitude" : 44.2513885
},
{
	"_id" : ObjectId("583450639e962f47deaa653b"),
	"altitude" : 815,
	"city" : "Aygehovit",
	"country" : "Armenia",
	"id" : NumberInt("606"),
	"latitude" : 40.9744444,
	"longitude" : 45.2519455
},
{
	"_id" : ObjectId("583450639e962f47deaa653c"),
	"altitude" : 684,
	"city" : "Shnogh",
	"country" : "Armenia",
	"id" : NumberInt("607"),
	"latitude" : 41.1477778,
	"longitude" : 44.8377762
},
{
	"_id" : ObjectId("583450639e962f47deaa653d"),
	"altitude" : 1,
	"city" : "Sydney",
	"country" : "Australia",
	"id" : NumberInt("608"),
	"latitude" : -33.86785,
	"longitude" : 151.2073212
},
{
	"_id" : ObjectId("583450639e962f47deaa653e"),
	"altitude" : 58,
	"city" : "Melbourne",
	"country" : "Australia",
	"id" : NumberInt("609"),
	"latitude" : -37.8139966,
	"longitude" : 144.9633179
},
{
	"_id" : ObjectId("583450639e962f47deaa653f"),
	"altitude" : 32,
	"city" : "Perth",
	"country" : "Australia",
	"id" : NumberInt("610"),
	"latitude" : -31.9333333,
	"longitude" : 115.8333359
},
{
	"_id" : ObjectId("583450639e962f47deaa6540"),
	"altitude" : 65,
	"city" : "Adelaide",
	"country" : "Australia",
	"id" : NumberInt("611"),
	"latitude" : -34.9333333,
	"longitude" : 138.6000061
},
{
	"_id" : ObjectId("583450639e962f47deaa6541"),
	"altitude" : 15,
	"city" : "Brisbane",
	"country" : "Australia",
	"id" : NumberInt("612"),
	"latitude" : -27.4679357,
	"longitude" : 153.0280914
},
{
	"_id" : ObjectId("583450639e962f47deaa6542"),
	"altitude" : 1,
	"city" : "Gold Coast",
	"country" : "Australia",
	"id" : NumberInt("613"),
	"latitude" : -28,
	"longitude" : 153.4333344
},
{
	"_id" : ObjectId("583450639e962f47deaa6543"),
	"altitude" : 1,
	"city" : "Newcastle",
	"country" : "Australia",
	"id" : NumberInt("614"),
	"latitude" : -32.9271484,
	"longitude" : 151.776474
},
{
	"_id" : ObjectId("583450639e962f47deaa6544"),
	"altitude" : 609,
	"city" : "Canberra",
	"country" : "Australia",
	"id" : NumberInt("615"),
	"latitude" : -35.2834625,
	"longitude" : 149.128067
},
{
	"_id" : ObjectId("583450639e962f47deaa6545"),
	"altitude" : 26,
	"city" : "Wollongong",
	"country" : "Australia",
	"id" : NumberInt("616"),
	"latitude" : -34.4333333,
	"longitude" : 150.8833313
},
{
	"_id" : ObjectId("583450639e962f47deaa6546"),
	"altitude" : -9999,
	"city" : "Geelong",
	"country" : "Australia",
	"id" : NumberInt("617"),
	"latitude" : -38.1471126,
	"longitude" : 144.3607025
},
{
	"_id" : ObjectId("583450639e962f47deaa6547"),
	"altitude" : 1,
	"city" : "Cairns",
	"country" : "Australia",
	"id" : NumberInt("618"),
	"latitude" : -16.9166667,
	"longitude" : 145.7666626
},
{
	"_id" : ObjectId("583450639e962f47deaa6548"),
	"altitude" : -9999,
	"city" : "Geelong West",
	"country" : "Australia",
	"id" : NumberInt("619"),
	"latitude" : -38.1333333,
	"longitude" : 144.3500061
},
{
	"_id" : ObjectId("583450639e962f47deaa6549"),
	"altitude" : 1,
	"city" : "Townsville",
	"country" : "Australia",
	"id" : NumberInt("620"),
	"latitude" : -19.25,
	"longitude" : 146.8000031
},
{
	"_id" : ObjectId("583450639e962f47deaa654a"),
	"altitude" : 170,
	"city" : "Albury",
	"country" : "Australia",
	"id" : NumberInt("621"),
	"latitude" : -36.0833333,
	"longitude" : 146.9166718
},
{
	"_id" : ObjectId("583450639e962f47deaa654b"),
	"altitude" : 1,
	"city" : "Nowra",
	"country" : "Australia",
	"id" : NumberInt("622"),
	"latitude" : -34.8833333,
	"longitude" : 150.6000061
},
{
	"_id" : ObjectId("583450639e962f47deaa654c"),
	"altitude" : -9999,
	"city" : "Darwin",
	"country" : "Australia",
	"id" : NumberInt("623"),
	"latitude" : -12.4611337,
	"longitude" : 130.8418427
},
{
	"_id" : ObjectId("583450639e962f47deaa654d"),
	"altitude" : 560,
	"city" : "Toowoomba",
	"country" : "Australia",
	"id" : NumberInt("624"),
	"latitude" : -27.55,
	"longitude" : 151.9666595
},
{
	"_id" : ObjectId("583450639e962f47deaa654e"),
	"altitude" : 465,
	"city" : "Ballarat",
	"country" : "Australia",
	"id" : NumberInt("625"),
	"latitude" : -37.5666667,
	"longitude" : 143.8500061
},
{
	"_id" : ObjectId("583450639e962f47deaa654f"),
	"altitude" : 234,
	"city" : "Bendigo",
	"country" : "Australia",
	"id" : NumberInt("626"),
	"latitude" : -36.7666667,
	"longitude" : 144.2833405
},
{
	"_id" : ObjectId("583450639e962f47deaa6550"),
	"altitude" : -9999,
	"city" : "Mackay",
	"country" : "Australia",
	"id" : NumberInt("627"),
	"latitude" : -21.15,
	"longitude" : 149.1999969
},
{
	"_id" : ObjectId("583450639e962f47deaa6551"),
	"altitude" : 1,
	"city" : "Mandurah",
	"country" : "Australia",
	"id" : NumberInt("628"),
	"latitude" : -32.55,
	"longitude" : 115.6999969
},
{
	"_id" : ObjectId("583450639e962f47deaa6552"),
	"altitude" : 105,
	"city" : "Launceston",
	"country" : "Australia",
	"id" : NumberInt("629"),
	"latitude" : -41.45,
	"longitude" : 147.1666718
},
{
	"_id" : ObjectId("583450639e962f47deaa6553"),
	"altitude" : 2,
	"city" : "Rockhampton",
	"country" : "Australia",
	"id" : NumberInt("630"),
	"latitude" : -23.3833333,
	"longitude" : 150.5
},
{
	"_id" : ObjectId("583450639e962f47deaa6554"),
	"altitude" : 8,
	"city" : "Coffs Harbour",
	"country" : "Australia",
	"id" : NumberInt("631"),
	"latitude" : -30.3,
	"longitude" : 153.1333313
},
{
	"_id" : ObjectId("583450639e962f47deaa6555"),
	"altitude" : 17,
	"city" : "South Brisbane",
	"country" : "Australia",
	"id" : NumberInt("632"),
	"latitude" : -27.4833333,
	"longitude" : 153.0166626
},
{
	"_id" : ObjectId("583450639e962f47deaa6556"),
	"altitude" : 148,
	"city" : "Wagga Wagga",
	"country" : "Australia",
	"id" : NumberInt("633"),
	"latitude" : -35.1166667,
	"longitude" : 147.3666687
},
{
	"_id" : ObjectId("583450639e962f47deaa6557"),
	"altitude" : 7,
	"city" : "Bundaberg",
	"country" : "Australia",
	"id" : NumberInt("634"),
	"latitude" : -24.85,
	"longitude" : 152.3500061
},
{
	"_id" : ObjectId("583450639e962f47deaa6558"),
	"altitude" : -9999,
	"city" : "Port Macquarie",
	"country" : "Australia",
	"id" : NumberInt("635"),
	"latitude" : -31.4333333,
	"longitude" : 152.9166718
},
{
	"_id" : ObjectId("583450639e962f47deaa6559"),
	"altitude" : 60,
	"city" : "Mildura",
	"country" : "Australia",
	"id" : NumberInt("636"),
	"latitude" : -34.2,
	"longitude" : 142.1499939
},
{
	"_id" : ObjectId("583450639e962f47deaa655a"),
	"altitude" : 151,
	"city" : "Hobart",
	"country" : "Australia",
	"id" : NumberInt("637"),
	"latitude" : -42.9166667,
	"longitude" : 147.3333282
},
{
	"_id" : ObjectId("583450639e962f47deaa655b"),
	"altitude" : -9999,
	"city" : "Torquay",
	"country" : "Australia",
	"id" : NumberInt("638"),
	"latitude" : -25.2833333,
	"longitude" : 152.8666687
},
{
	"_id" : ObjectId("583450639e962f47deaa655c"),
	"altitude" : -9999,
	"city" : "Mooloolaba",
	"country" : "Australia",
	"id" : NumberInt("639"),
	"latitude" : -26.6833333,
	"longitude" : 153.1166687
},
{
	"_id" : ObjectId("583450639e962f47deaa655d"),
	"altitude" : 56,
	"city" : "Taree",
	"country" : "Australia",
	"id" : NumberInt("640"),
	"latitude" : -31.9,
	"longitude" : 152.4666595
},
{
	"_id" : ObjectId("583450639e962f47deaa655e"),
	"altitude" : 1,
	"city" : "Cranbourne",
	"country" : "Australia",
	"id" : NumberInt("641"),
	"latitude" : -38.1,
	"longitude" : 145.2833405
},
{
	"_id" : ObjectId("583450639e962f47deaa655f"),
	"altitude" : 1,
	"city" : "Caloundra",
	"country" : "Australia",
	"id" : NumberInt("642"),
	"latitude" : -26.8,
	"longitude" : 153.1333313
},
{
	"_id" : ObjectId("583450639e962f47deaa6560"),
	"altitude" : 545,
	"city" : "Tamworth",
	"country" : "Australia",
	"id" : NumberInt("643"),
	"latitude" : -31.1,
	"longitude" : 150.9333344
},
{
	"_id" : ObjectId("583450639e962f47deaa6561"),
	"altitude" : 469,
	"city" : "Kalgoorlie",
	"country" : "Australia",
	"id" : NumberInt("644"),
	"latitude" : -30.75,
	"longitude" : 121.4666672
},
{
	"_id" : ObjectId("583450639e962f47deaa6562"),
	"altitude" : 132,
	"city" : "Shepparton",
	"country" : "Australia",
	"id" : NumberInt("645"),
	"latitude" : -36.3833333,
	"longitude" : 145.3999939
},
{
	"_id" : ObjectId("583450639e962f47deaa6563"),
	"altitude" : 128,
	"city" : "Melton",
	"country" : "Australia",
	"id" : NumberInt("646"),
	"latitude" : -37.6833333,
	"longitude" : 144.5833282
},
{
	"_id" : ObjectId("583450639e962f47deaa6564"),
	"altitude" : 609,
	"city" : "Queanbeyan",
	"country" : "Australia",
	"id" : NumberInt("647"),
	"latitude" : -35.35,
	"longitude" : 149.2333374
},
{
	"_id" : ObjectId("583450639e962f47deaa6565"),
	"altitude" : 153,
	"city" : "Wodonga",
	"country" : "Australia",
	"id" : NumberInt("648"),
	"latitude" : -36.1166667,
	"longitude" : 146.8833313
},
{
	"_id" : ObjectId("583450639e962f47deaa6566"),
	"altitude" : 130,
	"city" : "Lismore",
	"country" : "Australia",
	"id" : NumberInt("649"),
	"latitude" : -28.8135438,
	"longitude" : 153.277298
},
{
	"_id" : ObjectId("583450639e962f47deaa6567"),
	"altitude" : 1,
	"city" : "Gladstone",
	"country" : "Australia",
	"id" : NumberInt("650"),
	"latitude" : -23.85,
	"longitude" : 151.25
},
{
	"_id" : ObjectId("583450639e962f47deaa6568"),
	"altitude" : 652,
	"city" : "Orange",
	"country" : "Australia",
	"id" : NumberInt("651"),
	"latitude" : -33.2833333,
	"longitude" : 149.1000061
},
{
	"_id" : ObjectId("583450639e962f47deaa6569"),
	"altitude" : 1,
	"city" : "Warrnambool",
	"country" : "Australia",
	"id" : NumberInt("652"),
	"latitude" : -38.3833333,
	"longitude" : 142.4833374
},
{
	"_id" : ObjectId("583450639e962f47deaa656a"),
	"altitude" : 197,
	"city" : "Sunbury",
	"country" : "Australia",
	"id" : NumberInt("653"),
	"latitude" : -37.5833333,
	"longitude" : 144.7333374
},
{
	"_id" : ObjectId("583450639e962f47deaa656b"),
	"altitude" : 304,
	"city" : "Dubbo",
	"country" : "Australia",
	"id" : NumberInt("654"),
	"latitude" : -32.25,
	"longitude" : 148.6166687
},
{
	"_id" : ObjectId("583450639e962f47deaa656c"),
	"altitude" : 2,
	"city" : "Geraldton",
	"country" : "Australia",
	"id" : NumberInt("655"),
	"latitude" : -28.7666667,
	"longitude" : 114.5999985
},
{
	"_id" : ObjectId("583450639e962f47deaa656d"),
	"altitude" : 1,
	"city" : "Bunbury",
	"country" : "Australia",
	"id" : NumberInt("656"),
	"latitude" : -33.3333333,
	"longitude" : 115.6333313
},
{
	"_id" : ObjectId("583450639e962f47deaa656e"),
	"altitude" : 609,
	"city" : "Alice Springs",
	"country" : "Australia",
	"id" : NumberInt("657"),
	"latitude" : -23.7,
	"longitude" : 133.8833313
},
{
	"_id" : ObjectId("583450639e962f47deaa656f"),
	"altitude" : 6,
	"city" : "Palmerston",
	"country" : "Australia",
	"id" : NumberInt("658"),
	"latitude" : -12.4860237,
	"longitude" : 130.9832916
},
{
	"_id" : ObjectId("583450639e962f47deaa6570"),
	"altitude" : 85,
	"city" : "Albany",
	"country" : "Australia",
	"id" : NumberInt("659"),
	"latitude" : -35.0169444,
	"longitude" : 117.8916702
},
{
	"_id" : ObjectId("583450639e962f47deaa6571"),
	"altitude" : 82,
	"city" : "Mount Gambier",
	"country" : "Australia",
	"id" : NumberInt("660"),
	"latitude" : -37.8333333,
	"longitude" : 140.7666626
},
{
	"_id" : ObjectId("583450639e962f47deaa6572"),
	"altitude" : 1014,
	"city" : "Armidale",
	"country" : "Australia",
	"id" : NumberInt("661"),
	"latitude" : -30.5166667,
	"longitude" : 151.6499939
},
{
	"_id" : ObjectId("583450639e962f47deaa6573"),
	"altitude" : 438,
	"city" : "Mount Isa",
	"country" : "Australia",
	"id" : NumberInt("662"),
	"latitude" : -20.7333333,
	"longitude" : 139.5
},
{
	"_id" : ObjectId("583450639e962f47deaa6574"),
	"altitude" : 66,
	"city" : "Caboolture",
	"country" : "Australia",
	"id" : NumberInt("663"),
	"latitude" : -27.0833333,
	"longitude" : 152.9499969
},
{
	"_id" : ObjectId("583450639e962f47deaa6575"),
	"altitude" : 563,
	"city" : "Goulburn",
	"country" : "Australia",
	"id" : NumberInt("664"),
	"latitude" : -34.75,
	"longitude" : 149.7166595
},
{
	"_id" : ObjectId("583450639e962f47deaa6576"),
	"altitude" : 1,
	"city" : "Mornington",
	"country" : "Australia",
	"id" : NumberInt("665"),
	"latitude" : -38.2166667,
	"longitude" : 145.0333405
},
{
	"_id" : ObjectId("583450639e962f47deaa6577"),
	"altitude" : 4,
	"city" : "Maryborough",
	"country" : "Australia",
	"id" : NumberInt("666"),
	"latitude" : -25.5333333,
	"longitude" : 152.6999969
},
{
	"_id" : ObjectId("583450639e962f47deaa6578"),
	"altitude" : 24,
	"city" : "Kwinana",
	"country" : "Australia",
	"id" : NumberInt("667"),
	"latitude" : -32.25,
	"longitude" : 115.7666702
},
{
	"_id" : ObjectId("583450639e962f47deaa6579"),
	"altitude" : 1,
	"city" : "Burnie",
	"country" : "Australia",
	"id" : NumberInt("668"),
	"latitude" : -41.0666667,
	"longitude" : 145.9166718
},
{
	"_id" : ObjectId("583450639e962f47deaa657a"),
	"altitude" : 129,
	"city" : "Brunswick",
	"country" : "Australia",
	"id" : NumberInt("669"),
	"latitude" : -37.7666667,
	"longitude" : 144.9666595
},
{
	"_id" : ObjectId("583450639e962f47deaa657b"),
	"altitude" : 156,
	"city" : "Craigieburn",
	"country" : "Australia",
	"id" : NumberInt("670"),
	"latitude" : -37.6,
	"longitude" : 144.9499969
},
{
	"_id" : ObjectId("583450639e962f47deaa657c"),
	"altitude" : 1,
	"city" : "Whyalla",
	"country" : "Australia",
	"id" : NumberInt("671"),
	"latitude" : -33.0333333,
	"longitude" : 137.5833282
},
{
	"_id" : ObjectId("583450639e962f47deaa657d"),
	"altitude" : 73,
	"city" : "Echuca",
	"country" : "Australia",
	"id" : NumberInt("672"),
	"latitude" : -36.1333333,
	"longitude" : 144.75
},
{
	"_id" : ObjectId("583450639e962f47deaa657e"),
	"altitude" : 1,
	"city" : "Devonport",
	"country" : "Australia",
	"id" : NumberInt("673"),
	"latitude" : -41.1666667,
	"longitude" : 146.3500061
},
{
	"_id" : ObjectId("583450639e962f47deaa657f"),
	"altitude" : 11,
	"city" : "Roebourne",
	"country" : "Australia",
	"id" : NumberInt("674"),
	"latitude" : -20.7833333,
	"longitude" : 117.1333313
},
{
	"_id" : ObjectId("583450639e962f47deaa6580"),
	"altitude" : 163,
	"city" : "Hornsby",
	"country" : "Australia",
	"id" : NumberInt("675"),
	"latitude" : -33.7,
	"longitude" : 151.1000061
},
{
	"_id" : ObjectId("583450639e962f47deaa6581"),
	"altitude" : 720,
	"city" : "Katoomba",
	"country" : "Australia",
	"id" : NumberInt("676"),
	"latitude" : -33.7,
	"longitude" : 150.3000031
},
{
	"_id" : ObjectId("583450639e962f47deaa6582"),
	"altitude" : 1,
	"city" : "Surfers Paradise",
	"country" : "Australia",
	"id" : NumberInt("677"),
	"latitude" : -28.0027378,
	"longitude" : 153.4299927
},
{
	"_id" : ObjectId("583450639e962f47deaa6583"),
	"altitude" : 119,
	"city" : "Traralgon",
	"country" : "Australia",
	"id" : NumberInt("678"),
	"latitude" : -38.1833333,
	"longitude" : 146.5333405
},
{
	"_id" : ObjectId("583450639e962f47deaa6584"),
	"altitude" : 10,
	"city" : "Murray Bridge",
	"country" : "Australia",
	"id" : NumberInt("679"),
	"latitude" : -35.1166667,
	"longitude" : 139.2666626
},
{
	"_id" : ObjectId("583450639e962f47deaa6585"),
	"altitude" : 49,
	"city" : "Nerang",
	"country" : "Australia",
	"id" : NumberInt("680"),
	"latitude" : -27.9833333,
	"longitude" : 153.3333282
},